{
  "01217f5e840ff8cfdbbb6760db3d87015bf9ec69": [
    {
      "doc_id": "01217f5e840ff8cfdbbb6760db3d87015bf9ec69",
      "place_name": "Singapore",
      "geonameid": "1880252",
      "hit_lat": "1.28967",
      "hit_lon": "103.85007",
      "hit_country_iso2": "SG",
      "hit_admin1_name": "",
      "hit_admin1_code": "",
      "feature_class": "P",
      "feature_code": "PPLC",
      "candidate_reason": "by_country",
      "hit_type": "normal",
      "rank": "1",
      "ims_facility_id": "SIN",
      "unlocode": "SGSIN",
      "facility_name": "Singapore",
      "facility_city": "",
      "facility_country_iso2": "SG",
      "facility_admin1": "",
      "facility_lat": "1.28333",
      "facility_lon": "103.85",
      "distance_km": "0.7050187816064034",
      "name_score": "1.0",
      "admin_score": "0.0",
      "dist_score": "0.9905997495785813",
      "total_score": "0.8971799248735743"
    },
    {
      "doc_id": "01217f5e840ff8cfdbbb6760db3d87015bf9ec69",
      "place_name": "Batam",
      "geonameid": "6295587",
      "hit_lat": "1.14937",
      "hit_lon": "104.02491",
      "hit_country_iso2": "ID",
      "hit_admin1_name": "Riau",
      "hit_admin1_code": "37",
      "feature_class": "P",
      "feature_code": "PPL",
      "candidate_reason": "by_country",
      "hit_type": "normal",
      "rank": "1",
      "ims_facility_id": "BTM",
      "unlocode": "IDBTM",
      "facility_name": "Batam Island",
      "facility_city": "Kepulauan Riau",
      "facility_country_iso2": "ID",
      "facility_admin1": "KR",
      "facility_lat": "1.08333",
      "facility_lon": "104.03333",
      "distance_km": "7.402735813441795",
      "name_score": "1.0",
      "admin_score": "0.0",
      "dist_score": "0.9012968558207761",
      "total_score": "0.8703890567462328"
    },
    {
      "doc_id": "01217f5e840ff8cfdbbb6760db3d87015bf9ec69",
      "place_name": "Republic of Singapore",
      "geonameid": "1880251",
      "hit_lat": "1.36667",
      "hit_lon": "103.8",
      "hit_country_iso2": "SG",
      "hit_admin1_name": "",
      "hit_admin1_code": "00",
      "feature_class": "A",
      "feature_code": "PCLI",
      "candidate_reason": "by_country",
      "hit_type": "country",
      "rank": "5",
      "ims_facility_id": "SIN",
      "unlocode": "SGSIN",
      "facility_name": "Singapore",
      "facility_city": "",
      "facility_country_iso2": "SG",
      "facility_admin1": "",
      "facility_lat": "1.28333",
      "facility_lon": "103.85",
      "distance_km": "10.80607515791352",
      "name_score": "1.0",
      "admin_score": "0.0",
      "dist_score": "0.8559189978944863",
      "total_score": "0.8567756993683459"
    },
    {
      "doc_id": "01217f5e840ff8cfdbbb6760db3d87015bf9ec69",
      "place_name": "Batam",
      "geonameid": "6295587",
      "hit_lat": "1.14937",
      "hit_lon": "104.02491",
      "hit_country_iso2": "ID",
      "hit_admin1_name": "Riau",
      "hit_admin1_code": "37",
      "feature_class": "P",
      "feature_code": "PPL",
      "candidate_reason": "by_country",
      "hit_type": "normal",
      "rank": "2",
      "ims_facility_id": "BUR",
      "unlocode": "IDBUR",
      "facility_name": "Batu Ampar",
      "facility_city": "",
      "facility_country_iso2": "ID",
      "facility_admin1": "KR",
      "facility_lat": "1.16667",
      "facility_lon": "104.01667",
      "distance_km": "2.1306522589964714",
      "name_score": "0.7142857142857143",
      "admin_score": "0.0",
      "dist_score": "0.9715913032133804",
      "total_score": "0.7200488195354426"
    },
    {
      "doc_id": "01217f5e840ff8cfdbbb6760db3d87015bf9ec69",
      "place_name": "Singapore",
      "geonameid": "1880252",
      "hit_lat": "1.28967",
      "hit_lon": "103.85007",
      "hit_country_iso2": "SG",
      "hit_admin1_name": "",
      "hit_admin1_code": "",
      "feature_class": "P",
      "feature_code": "PPLC",
      "candidate_reason": "by_country",
      "hit_type": "normal",
      "rank": "2",
      "ims_facility_id": "BKM",
      "unlocode": "SGBKM",
      "facility_name": "Bukit Merah Estate",
      "facility_city": "Central Singapore",
      "facility_country_iso2": "SG",
      "facility_admin1": "01",
      "facility_lat": "1.28333",
      "facility_lon": "103.81667",
      "distance_km": "3.7793080867836326",
      "name_score": "0.72",
      "admin_score": "0.0",
      "dist_score": "0.9496092255095515",
      "total_score": "0.7168827676528655"
    },
    {
      "doc_id": "01217f5e840ff8cfdbbb6760db3d87015bf9ec69",
      "place_name": "Singapore",
      "geonameid": "1880252",
      "hit_lat": "1.28967",
      "hit_lon": "103.85007",
      "hit_country_iso2": "SG",
      "hit_admin1_name": "",
      "hit_admin1_code": "",
      "feature_class": "P",
      "feature_code": "PPLC",
      "candidate_reason": "by_country",
      "hit_type": "normal",
      "rank": "3",
      "ims_facility_id": "JUR",
      "unlocode": "SGJUR",
      "facility_name": "Jurong/Singapore",
      "facility_city": "",
      "facility_country_iso2": "SG",
      "facility_admin1": "",
      "facility_lat": "1.33333",
      "facility_lon": "103.7",
      "distance_km": "17.37468374476754",
      "name_score": "0.72",
      "admin_score": "0.0",
      "dist_score": "0.7683375500697661",
      "total_score": "0.6625012650209299"
    },
    {
      "doc_id": "01217f5e840ff8cfdbbb6760db3d87015bf9ec69",
      "place_name": "Republic of Singapore",
      "geonameid": "1880251",
      "hit_lat": "1.36667",
      "hit_lon": "103.8",
      "hit_country_iso2": "SG",
      "hit_admin1_name": "",
      "hit_admin1_code": "00",
      "feature_class": "A",
      "feature_code": "PCLI",
      "candidate_reason": "by_country",
      "hit_type": "country",
      "rank": "2",
      "ims_facility_id": "BKM",
      "unlocode": "SGBKM",
      "facility_name": "Bukit Merah Estate",
      "facility_city": "Central Singapore",
      "facility_country_iso2": "SG",
      "facility_admin1": "01",
      "facility_lat": "1.28333",
      "facility_lon": "103.81667",
      "distance_km": "9.450454044568794",
      "name_score": "0.631578947368421",
      "admin_score": "0.0",
      "dist_score": "0.8739939460724161",
      "total_score": "0.6411455522427774"
    },
    {
      "doc_id": "01217f5e840ff8cfdbbb6760db3d87015bf9ec69",
      "place_name": "Republic of Singapore",
      "geonameid": "1880251",
      "hit_lat": "1.36667",
      "hit_lon": "103.8",
      "hit_country_iso2": "SG",
      "hit_admin1_name": "",
      "hit_admin1_code": "00",
      "feature_class": "A",
      "feature_code": "PCLI",
      "candidate_reason": "by_country",
      "hit_type": "country",
      "rank": "10",
      "ims_facility_id": "JUR",
      "unlocode": "SGJUR",
      "facility_name": "Jurong/Singapore",
      "facility_city": "",
      "facility_country_iso2": "SG",
      "facility_admin1": "",
      "facility_lat": "1.33333",
      "facility_lon": "103.7",
      "distance_km": "11.718280755631644",
      "name_score": "0.5945945945945946",
      "admin_score": "0.0",
      "dist_score": "0.843756256591578",
      "total_score": "0.6098836337342302"
    },
    {
      "doc_id": "01217f5e840ff8cfdbbb6760db3d87015bf9ec69",
      "place_name": "Singapore",
      "geonameid": "1880252",
      "hit_lat": "1.28967",
      "hit_lon": "103.85007",
      "hit_country_iso2": "SG",
      "hit_admin1_name": "",
      "hit_admin1_code": "",
      "feature_class": "P",
      "feature_code": "PPLC",
      "candidate_reason": "by_country",
      "hit_type": "normal",
      "rank": "4",
      "ims_facility_id": "SCT",
      "unlocode": "SGSCT",
      "facility_name": "Singapore Container Terminal",
      "facility_city": "",
      "facility_country_iso2": "SG",
      "facility_admin1": "",
      "facility_lat": "1.26667",
      "facility_lon": "103.833",
      "distance_km": "3.184603887884378",
      "name_score": "0.5142857142857142",
      "admin_score": "0.0",
      "dist_score": "0.9575386148282083",
      "total_score": "0.595833013019891"
    },
    {
      "doc_id": "01217f5e840ff8cfdbbb6760db3d87015bf9ec69",
      "place_name": "Singapore",
      "geonameid": "1880252",
      "hit_lat": "1.28967",
      "hit_lon": "103.85007",
      "hit_country_iso2": "SG",
      "hit_admin1_name": "",
      "hit_admin1_code": "",
      "feature_class": "P",
      "feature_code": "PPLC",
      "candidate_reason": "by_country",
      "hit_type": "normal",
      "rank": "5",
      "ims_facility_id": "PAP",
      "unlocode": "SGPAP",
      "facility_name": "Pasir Panjang Wharves",
      "facility_city": "",
      "facility_country_iso2": "SG",
      "facility_admin1": "",
      "facility_lat": "1.26667",
      "facility_lon": "103.78333",
      "distance_km": "7.847724215923911",
      "name_score": "0.5",
      "admin_score": "0.0",
      "dist_score": "0.8953636771210145",
      "total_score": "0.5686091031363043"
    },
    {
      "doc_id": "01217f5e840ff8cfdbbb6760db3d87015bf9ec69",
      "place_name": "Singapore",
      "geonameid": "1880252",
      "hit_lat": "1.28967",
      "hit_lon": "103.85007",
      "hit_country_iso2": "SG",
      "hit_admin1_name": "",
      "hit_admin1_code": "",
      "feature_class": "P",
      "feature_code": "PPLC",
      "candidate_reason": "by_country",
      "hit_type": "normal",
      "rank": "6",
      "ims_facility_id": "SEM",
      "unlocode": "SGSEM",
      "facility_name": "Sembawang Port",
      "facility_city": "",
      "facility_country_iso2": "SG",
      "facility_admin1": "",
      "facility_lat": "1.449111111",
      "facility_lon": "103.818494444",
      "distance_km": "18.073165687225917",
      "name_score": "0.5454545454545454",
      "admin_score": "0.0",
      "dist_score": "0.7590244575036544",
      "total_score": "0.5549800645238235"
    },
    {
      "doc_id": "01217f5e840ff8cfdbbb6760db3d87015bf9ec69",
      "place_name": "Batam",
      "geonameid": "6295587",
      "hit_lat": "1.14937",
      "hit_lon": "104.02491",
      "hit_country_iso2": "ID",
      "hit_admin1_name": "Riau",
      "hit_admin1_code": "37",
      "feature_class": "P",
      "feature_code": "PPL",
      "candidate_reason": "by_country",
      "hit_type": "normal",
      "rank": "3",
      "ims_facility_id": "LBM",
      "unlocode": "IDLBM",
      "facility_name": "Lobam",
      "facility_city": "",
      "facility_country_iso2": "ID",
      "facility_admin1": "",
      "facility_lat": "1.0",
      "facility_lon": "104.26667",
      "distance_km": "31.59554499584638",
      "name_score": "0.6",
      "admin_score": "0.0",
      "dist_score": "0.5787260667220482",
      "total_score": "0.5336178200166144"
    },
    {
      "doc_id": "01217f5e840ff8cfdbbb6760db3d87015bf9ec69",
      "place_name": "Republic of Singapore",
      "geonameid": "1880251",
      "hit_lat": "1.36667",
      "hit_lon": "103.8",
      "hit_country_iso2": "SG",
      "hit_admin1_name": "",
      "hit_admin1_code": "00",
      "feature_class": "A",
      "feature_code": "PCLI",
      "candidate_reason": "by_country",
      "hit_type": "country",
      "rank": "1",
      "ims_facility_id": "SEM",
      "unlocode": "SGSEM",
      "facility_name": "Sembawang Port",
      "facility_city": "",
      "facility_country_iso2": "SG",
      "facility_admin1": "",
      "facility_lat": "1.449111111",
      "facility_lon": "103.818494444",
      "distance_km": "9.394737350274271",
      "name_score": "0.4117647058823529",
      "admin_score": "0.0",
      "dist_score": "0.8747368353296764",
      "total_score": "0.5094798741283146"
    }
  ],
  "03f72fe6528f5420c4e6e5a29b397925841f27cb": [
    {
      "doc_id": "03f72fe6528f5420c4e6e5a29b397925841f27cb",
      "place_name": "Ust’-Luga",
      "geonameid": "478036",
      "hit_lat": "59.66755",
      "hit_lon": "28.28713",
      "hit_country_iso2": "RU",
      "hit_admin1_name": "Leningradskaya Oblast'",
      "hit_admin1_code": "42",
      "feature_class": "P",
      "feature_code": "PPL",
      "candidate_reason": "by_country",
      "hit_type": "normal",
      "rank": "1",
      "ims_facility_id": "ULU",
      "unlocode": "RUULU",
      "facility_name": "Ust'-Luga",
      "facility_city": "Leningradskaya oblast'",
      "facility_country_iso2": "RU",
      "facility_admin1": "LEN",
      "facility_lat": "59.66667",
      "facility_lon": "28.31667",
      "distance_km": "1.6617321360183026",
      "name_score": "1.0",
      "admin_score": "1.0",
      "dist_score": "0.977843571519756",
      "total_score": "0.9933530714559268"
    },
    {
      "doc_id": "03f72fe6528f5420c4e6e5a29b397925841f27cb",
      "place_name": "Dakar",
      "geonameid": "2253354",
      "hit_lat": "14.6937",
      "hit_lon": "-17.44406",
      "hit_country_iso2": "SN",
      "hit_admin1_name": "Dakar",
      "hit_admin1_code": "01",
      "feature_class": "P",
      "feature_code": "PPLC",
      "candidate_reason": "by_country",
      "hit_type": "normal",
      "rank": "1",
      "ims_facility_id": "DKR",
      "unlocode": "SNDKR",
      "facility_name": "Dakar",
      "facility_city": "",
      "facility_country_iso2": "SN",
      "facility_admin1": "",
      "facility_lat": "14.693425",
      "facility_lon": "-17.447938",
      "distance_km": "0.41823097884096777",
      "name_score": "1.0",
      "admin_score": "0.0",
      "dist_score": "0.9944235869487871",
      "total_score": "0.898327076084636"
    },
    {
      "doc_id": "03f72fe6528f5420c4e6e5a29b397925841f27cb",
      "place_name": "Tuapse",
      "geonameid": "480716",
      "hit_lat": "44.10083",
      "hit_lon": "39.08326",
      "hit_country_iso2": "RU",
      "hit_admin1_name": "Krasnodar Krai",
      "hit_admin1_code": "38",
      "feature_class": "P",
      "feature_code": "PPLA2",
      "candidate_reason": "by_country",
      "hit_type": "normal",
      "rank": "1",
      "ims_facility_id": "TUA",
      "unlocode": "RUTUA",
      "facility_name": "Tuapse",
      "facility_city": "",
      "facility_country_iso2": "RU",
      "facility_admin1": "",
      "facility_lat": "44.0984747",
      "facility_lon": "39.0718875",
      "distance_km": "0.9451329114781468",
      "name_score": "1.0",
      "admin_score": "0.0",
      "dist_score": "0.9873982278469581",
      "total_score": "0.8962194683540874"
    },
    {
      "doc_id": "03f72fe6528f5420c4e6e5a29b397925841f27cb",
      "place_name": "Novorossiysk",
      "geonameid": "518255",
      "hit_lat": "44.73188",
      "hit_lon": "37.76176",
      "hit_country_iso2": "RU",
      "hit_admin1_name": "Krasnodar Krai",
      "hit_admin1_code": "38",
      "feature_class": "P",
      "feature_code": "PPLA2",
      "candidate_reason": "by_country",
      "hit_type": "normal",
      "rank": "1",
      "ims_facility_id": "NVS",
      "unlocode": "RUNVS",
      "facility_name": "Novorossiysk",
      "facility_city": "Krasnodarskiy kray",
      "facility_country_iso2": "RU",
      "facility_admin1": "KDA",
      "facility_lat": "44.71667",
      "facility_lon": "37.76667",
      "distance_km": "1.7351901983115687",
      "name_score": "1.0",
      "admin_score": "0.0",
      "dist_score": "0.9768641306891791",
      "total_score": "0.8930592392067537"
    },
    {
      "doc_id": "03f72fe6528f5420c4e6e5a29b397925841f27cb",
      "place_name": "Daman",
      "geonameid": "1273618",
      "hit_lat": "20.41431",
      "hit_lon": "72.83236",
      "hit_country_iso2": "IN",
      "hit_admin1_name": "Dadra and Nagar Haveli and Daman and Diu",
      "hit_admin1_code": "52",
      "feature_class": "P",
      "feature_code": "PPLA",
      "candidate_reason": "by_country",
      "hit_type": "normal",
      "rank": "1",
      "ims_facility_id": "DAM",
      "unlocode": "INDAM",
      "facility_name": "Daman",
      "facility_city": "Daman and Diu",
      "facility_country_iso2": "IN",
      "facility_admin1": "DD",
      "facility_lat": "20.42000485",
      "facility_lon": "72.86376290300566",
      "distance_km": "3.333181532381491",
      "name_score": "1.0",
      "admin_score": "0.0",
      "dist_score": "0.9555575795682468",
      "total_score": "0.886667273870474"
    },
    {
      "doc_id": "03f72fe6528f5420c4e6e5a29b397925841f27cb",
      "place_name": "Port of Los Angeles",
      "geonameid": "5384364",
      "hit_lat": "33.72919",
      "hit_lon": "-118.26202",
      "hit_country_iso2": "US",
      "hit_admin1_name": "California",
      "hit_admin1_code": "CA",
      "feature_class": "H",
      "feature_code": "HBR",
      "candidate_reason": "by_country",
      "hit_type": "normal",
      "rank": "1",
      "ims_facility_id": "LAX",
      "unlocode": "USLAX",
      "facility_name": "Los Angeles",
      "facility_city": "California",
      "facility_country_iso2": "US",
      "facility_admin1": "CA",
      "facility_lat": "34.05",
      "facility_lon": "-118.25",
      "distance_km": "35.689694189197404",
      "name_score": "1.0",
      "admin_score": "1.0",
      "dist_score": "0.5241374108107013",
      "total_score": "0.8572412232432104"
    },
    {
      "doc_id": "03f72fe6528f5420c4e6e5a29b397925841f27cb",
      "place_name": "Port of Los Angeles",
      "geonameid": "5384364",
      "hit_lat": "33.72919",
      "hit_lon": "-118.26202",
      "hit_country_iso2": "US",
      "hit_admin1_name": "California",
      "hit_admin1_code": "CA",
      "feature_class": "H",
      "feature_code": "HBR",
      "candidate_reason": "by_country",
      "hit_type": "normal",
      "rank": "2",
      "ims_facility_id": "LGB",
      "unlocode": "USLGB",
      "facility_name": "Long Beach",
      "facility_city": "California",
      "facility_country_iso2": "US",
      "facility_admin1": "CA",
      "facility_lat": "33.76667",
      "facility_lon": "-118.18333",
      "distance_km": "8.384587571577997",
      "name_score": "0.7027027027027027",
      "admin_score": "1.0",
      "dist_score": "0.8882054990456267",
      "total_score": "0.7880832713353096"
    },
    {
      "doc_id": "03f72fe6528f5420c4e6e5a29b397925841f27cb",
      "place_name": "Port of Los Angeles",
      "geonameid": "5384364",
      "hit_lat": "33.72919",
      "hit_lon": "-118.26202",
      "hit_country_iso2": "US",
      "hit_admin1_name": "California",
      "hit_admin1_code": "CA",
      "feature_class": "H",
      "feature_code": "HBR",
      "candidate_reason": "by_country",
      "hit_type": "normal",
      "rank": "3",
      "ims_facility_id": "WTN",
      "unlocode": "USWTN",
      "facility_name": "Wilmington",
      "facility_city": "California",
      "facility_country_iso2": "US",
      "facility_admin1": "CA",
      "facility_lat": "33.76667",
      "facility_lon": "-118.26667",
      "distance_km": "4.1897027451065165",
      "name_score": "0.6190476190476191",
      "admin_score": "1.0",
      "dist_score": "0.9441372967319132",
      "total_score": "0.7546697604481454"
    },
    {
      "doc_id": "03f72fe6528f5420c4e6e5a29b397925841f27cb",
      "place_name": "Primorsk",
      "geonameid": "505269",
      "hit_lat": "60.36622",
      "hit_lon": "28.60615",
      "hit_country_iso2": "RU",
      "hit_admin1_name": "Leningradskaya Oblast'",
      "hit_admin1_code": "42",
      "feature_class": "P",
      "feature_code": "PPL",
      "candidate_reason": "by_country",
      "hit_type": "normal",
      "rank": "1",
      "ims_facility_id": "PRI",
      "unlocode": "RUPRI",
      "facility_name": "Primorsk (Koivisto)",
      "facility_city": "",
      "facility_country_iso2": "RU",
      "facility_admin1": "",
      "facility_lat": "60.366665",
      "facility_lon": "28.616673",
      "distance_km": "0.580671366464615",
      "name_score": "0.6666666666666666",
      "admin_score": "0.0",
      "dist_score": "0.9922577151138051",
      "total_score": "0.6976773145341415"
    },
    {
      "doc_id": "03f72fe6528f5420c4e6e5a29b397925841f27cb",
      "place_name": "Baltic Sea",
      "geonameid": "2633321",
      "hit_lat": "56.0",
      "hit_lon": "18.0",
      "hit_country_iso2": "",
      "hit_admin1_name": "",
      "hit_admin1_code": "00",
      "feature_class": "H",
      "feature_code": "SEA",
      "candidate_reason": "by_sea_coords_600.0km",
      "hit_type": "sea",
      "rank": "38",
      "ims_facility_id": "BLT",
      "unlocode": "RUBLT",
      "facility_name": "Baltiysk",
      "facility_city": "",
      "facility_country_iso2": "RU",
      "facility_admin1": "",
      "facility_lat": "54.6437214",
      "facility_lon": "19.8941584",
      "distance_km": "192.61091725440977",
      "name_score": "0.6666666666666666",
      "admin_score": "0.0",
      "dist_score": "0.6789818045759837",
      "total_score": "0.6036945413727951"
    },
    {
      "doc_id": "03f72fe6528f5420c4e6e5a29b397925841f27cb",
      "place_name": "Port of Los Angeles",
      "geonameid": "5384364",
      "hit_lat": "33.72919",
      "hit_lon": "-118.26202",
      "hit_country_iso2": "US",
      "hit_admin1_name": "California",
      "hit_admin1_code": "CA",
      "feature_class": "H",
      "feature_code": "HBR",
      "candidate_reason": "by_country",
      "hit_type": "normal",
      "rank": "4",
      "ims_facility_id": "LAT",
      "unlocode": "USLAT",
      "facility_name": "Los Alamitos",
      "facility_city": "California",
      "facility_country_iso2": "US",
      "facility_admin1": "CA",
      "facility_lat": "33.8",
      "facility_lon": "-118.06667",
      "distance_km": "19.699956752516652",
      "name_score": "0.45161290322580644",
      "admin_score": "1.0",
      "dist_score": "0.7373339099664447",
      "total_score": "0.5921679149254172"
    },
    {
      "doc_id": "03f72fe6528f5420c4e6e5a29b397925841f27cb",
      "place_name": "Port of Los Angeles",
      "geonameid": "5384364",
      "hit_lat": "33.72919",
      "hit_lon": "-118.26202",
      "hit_country_iso2": "US",
      "hit_admin1_name": "California",
      "hit_admin1_code": "CA",
      "feature_class": "H",
      "feature_code": "HBR",
      "candidate_reason": "by_country",
      "hit_type": "normal",
      "rank": "5",
      "ims_facility_id": "JNP",
      "unlocode": "USJNP",
      "facility_name": "Newport Beach",
      "facility_city": "California",
      "facility_country_iso2": "US",
      "facility_admin1": "CA",
      "facility_lat": "33.61667",
      "facility_lon": "-117.91667",
      "distance_km": "34.319938442289356",
      "name_score": "0.47619047619047616",
      "admin_score": "1.0",
      "dist_score": "0.5424008207694753",
      "total_score": "0.5484345319451283"
    },
    {
      "doc_id": "03f72fe6528f5420c4e6e5a29b397925841f27cb",
      "place_name": "Daman",
      "geonameid": "1273618",
      "hit_lat": "20.41431",
      "hit_lon": "72.83236",
      "hit_country_iso2": "IN",
      "hit_admin1_name": "Dadra and Nagar Haveli and Daman and Diu",
      "hit_admin1_code": "52",
      "feature_class": "P",
      "feature_code": "PPLA",
      "candidate_reason": "by_country",
      "hit_type": "normal",
      "rank": "2",
      "ims_facility_id": "DHU",
      "unlocode": "INDHU",
      "facility_name": "Dahanu",
      "facility_city": "Maharashtra",
      "facility_country_iso2": "IN",
      "facility_admin1": "MH",
      "facility_lat": "19.9887244",
      "facility_lon": "72.733848",
      "distance_km": "48.426687041557685",
      "name_score": "0.7272727272727273",
      "admin_score": "0.0",
      "dist_score": "0.3543108394458976",
      "total_score": "0.5426568881974057"
    },
    {
      "doc_id": "03f72fe6528f5420c4e6e5a29b397925841f27cb",
      "place_name": "Baltic Sea",
      "geonameid": "2633321",
      "hit_lat": "56.0",
      "hit_lon": "18.0",
      "hit_country_iso2": "",
      "hit_admin1_name": "",
      "hit_admin1_code": "00",
      "feature_class": "H",
      "feature_code": "SEA",
      "candidate_reason": "by_sea_coords_600.0km",
      "hit_type": "sea",
      "rank": "5",
      "ims_facility_id": "KLR",
      "unlocode": "SEKLR",
      "facility_name": "Kalmar",
      "facility_city": "Kalmar län",
      "facility_country_iso2": "SE",
      "facility_admin1": "H",
      "facility_lat": "56.66667",
      "facility_lon": "16.36667",
      "distance_km": "125.02307407701312",
      "name_score": "0.46153846153846156",
      "admin_score": "0.0",
      "dist_score": "0.7916282098716448",
      "total_score": "0.5144115398845703"
    },
    {
      "doc_id": "03f72fe6528f5420c4e6e5a29b397925841f27cb",
      "place_name": "Baltic Sea",
      "geonameid": "2633321",
      "hit_lat": "56.0",
      "hit_lon": "18.0",
      "hit_country_iso2": "",
      "hit_admin1_name": "",
      "hit_admin1_code": "00",
      "feature_class": "H",
      "feature_code": "SEA",
      "candidate_reason": "by_sea_coords_600.0km",
      "hit_type": "sea",
      "rank": "34",
      "ims_facility_id": "GDN",
      "unlocode": "PLGDN",
      "facility_name": "Gdansk",
      "facility_city": "",
      "facility_country_iso2": "PL",
      "facility_admin1": "",
      "facility_lat": "54.3706858",
      "facility_lon": "18.61298210330077",
      "distance_km": "185.30162236363262",
      "name_score": "0.5",
      "admin_score": "0.0",
      "dist_score": "0.691163962727279",
      "total_score": "0.5073491888181837"
    }
  ],
  "04102e9a87d47e4118f4feedcf65092c4c78a86d": [
    {
      "doc_id": "04102e9a87d47e4118f4feedcf65092c4c78a86d",
      "place_name": "Caspian Sea",
      "geonameid": "630671",
      "hit_lat": "42.0",
      "hit_lon": "50.0",
      "hit_country_iso2": "",
      "hit_admin1_name": "",
      "hit_admin1_code": "00",
      "feature_class": "H",
      "feature_code": "SEA",
      "candidate_reason": "by_sea_coords_600.0km",
      "hit_type": "sea",
      "rank": "7",
      "ims_facility_id": "SHI",
      "unlocode": "AZSHI",
      "facility_name": "Shirvan",
      "facility_city": "Agsu",
      "facility_country_iso2": "AZ",
      "facility_admin1": "AGU",
      "facility_lat": "39.91667",
      "facility_lon": "48.91667",
      "distance_km": "248.87126006358494",
      "name_score": "0.56",
      "admin_score": "0.0",
      "dist_score": "0.5852145665606918",
      "total_score": "0.5115643699682075"
    }
  ],
  "0633ea24876c9db4427c8c505badd0ff768989f4": [
    {
      "doc_id": "0633ea24876c9db4427c8c505badd0ff768989f4",
      "place_name": "Sydney",
      "geonameid": "2147714",
      "hit_lat": "-33.86785",
      "hit_lon": "151.20732",
      "hit_country_iso2": "AU",
      "hit_admin1_name": "New South Wales",
      "hit_admin1_code": "02",
      "feature_class": "P",
      "feature_code": "PPLA",
      "candidate_reason": "by_country",
      "hit_type": "normal",
      "rank": "1",
      "ims_facility_id": "SYD",
      "unlocode": "AUSYD",
      "facility_name": "Sydney",
      "facility_city": "New South Wales",
      "facility_country_iso2": "AU",
      "facility_admin1": "NSW",
      "facility_lat": "-33.85",
      "facility_lon": "151.2",
      "distance_km": "2.0967603140350772",
      "name_score": "1.0",
      "admin_score": "0.0",
      "dist_score": "0.9720431958128657",
      "total_score": "0.8916129587438597"
    },
    {
      "doc_id": "0633ea24876c9db4427c8c505badd0ff768989f4",
      "place_name": "Newcastle Harbour",
      "geonameid": "2155469",
      "hit_lat": "-32.93333",
      "hit_lon": "151.78333",
      "hit_country_iso2": "AU",
      "hit_admin1_name": "New South Wales",
      "hit_admin1_code": "02",
      "feature_class": "H",
      "feature_code": "HBR",
      "candidate_reason": "by_country",
      "hit_type": "normal",
      "rank": "1",
      "ims_facility_id": "NTL",
      "unlocode": "AUNTL",
      "facility_name": "Newcastle",
      "facility_city": "New South Wales",
      "facility_country_iso2": "AU",
      "facility_admin1": "NSW",
      "facility_lat": "-32.9272881",
      "facility_lon": "151.7812534",
      "distance_km": "0.6992247603002458",
      "name_score": "0.6923076923076923",
      "admin_score": "0.0",
      "dist_score": "0.9906770031959967",
      "total_score": "0.7125877163434143"
    },
    {
      "doc_id": "0633ea24876c9db4427c8c505badd0ff768989f4",
      "place_name": "Sydney",
      "geonameid": "2147714",
      "hit_lat": "-33.86785",
      "hit_lon": "151.20732",
      "hit_country_iso2": "AU",
      "hit_admin1_name": "New South Wales",
      "hit_admin1_code": "02",
      "feature_class": "P",
      "feature_code": "PPLA",
      "candidate_reason": "by_country",
      "hit_type": "normal",
      "rank": "2",
      "ims_facility_id": "PJK",
      "unlocode": "AUPJK",
      "facility_name": "Port Jackson",
      "facility_city": "New South Wales",
      "facility_country_iso2": "AU",
      "facility_admin1": "NSW",
      "facility_lat": "-33.858333333",
      "facility_lon": "151.233333333",
      "distance_km": "2.6246675779411373",
      "name_score": "0.6",
      "admin_score": "0.0",
      "dist_score": "0.9650044322941181",
      "total_score": "0.6495013296882355"
    },
    {
      "doc_id": "0633ea24876c9db4427c8c505badd0ff768989f4",
      "place_name": "Sydney",
      "geonameid": "2147714",
      "hit_lat": "-33.86785",
      "hit_lon": "151.20732",
      "hit_country_iso2": "AU",
      "hit_admin1_name": "New South Wales",
      "hit_admin1_code": "02",
      "feature_class": "P",
      "feature_code": "PPLA",
      "candidate_reason": "by_country",
      "hit_type": "normal",
      "rank": "3",
      "ims_facility_id": "CMO",
      "unlocode": "AUCMO",
      "facility_name": "Como",
      "facility_city": "New South Wales",
      "facility_country_iso2": "AU",
      "facility_admin1": "NSW",
      "facility_lat": "-34.0",
      "facility_lon": "151.06667",
      "distance_km": "19.603534022381574",
      "name_score": "0.6666666666666666",
      "admin_score": "0.0",
      "dist_score": "0.7386195463682457",
      "total_score": "0.6215858639104737"
    },
    {
      "doc_id": "0633ea24876c9db4427c8c505badd0ff768989f4",
      "place_name": "Sydney",
      "geonameid": "2147714",
      "hit_lat": "-33.86785",
      "hit_lon": "151.20732",
      "hit_country_iso2": "AU",
      "hit_admin1_name": "New South Wales",
      "hit_admin1_code": "02",
      "feature_class": "P",
      "feature_code": "PPLA",
      "candidate_reason": "by_country",
      "hit_type": "normal",
      "rank": "4",
      "ims_facility_id": "ANN",
      "unlocode": "AUANN",
      "facility_name": "Annandale",
      "facility_city": "New South Wales",
      "facility_country_iso2": "AU",
      "facility_admin1": "NSW",
      "facility_lat": "-33.88333",
      "facility_lon": "151.16667",
      "distance_km": "4.128716616329747",
      "name_score": "0.5217391304347826",
      "admin_score": "0.0",
      "dist_score": "0.9449504451156033",
      "total_score": "0.5965286117955505"
    },
    {
      "doc_id": "0633ea24876c9db4427c8c505badd0ff768989f4",
      "place_name": "Sydney",
      "geonameid": "2147714",
      "hit_lat": "-33.86785",
      "hit_lon": "151.20732",
      "hit_country_iso2": "AU",
      "hit_admin1_name": "New South Wales",
      "hit_admin1_code": "02",
      "feature_class": "P",
      "feature_code": "PPLA",
      "candidate_reason": "by_country",
      "hit_type": "normal",
      "rank": "5",
      "ims_facility_id": "FWT",
      "unlocode": "AUFWT",
      "facility_name": "Freshwater",
      "facility_city": "New South Wales",
      "facility_country_iso2": "AU",
      "facility_admin1": "NSW",
      "facility_lat": "-33.76667",
      "facility_lon": "151.28333",
      "distance_km": "13.26223218518913",
      "name_score": "0.5714285714285714",
      "admin_score": "0.0",
      "dist_score": "0.8231702375308116",
      "total_score": "0.5898082141163863"
    },
    {
      "doc_id": "0633ea24876c9db4427c8c505badd0ff768989f4",
      "place_name": "Sydney",
      "geonameid": "2147714",
      "hit_lat": "-33.86785",
      "hit_lon": "151.20732",
      "hit_country_iso2": "AU",
      "hit_admin1_name": "New South Wales",
      "hit_admin1_code": "02",
      "feature_class": "P",
      "feature_code": "PPLA",
      "candidate_reason": "by_country",
      "hit_type": "normal",
      "rank": "6",
      "ims_facility_id": "BE9",
      "unlocode": "AUBE9",
      "facility_name": "Belrose",
      "facility_city": "New South Wales",
      "facility_country_iso2": "AU",
      "facility_admin1": "NSW",
      "facility_lat": "-33.73333",
      "facility_lon": "151.21667",
      "distance_km": "14.982870766956657",
      "name_score": "0.5714285714285714",
      "admin_score": "0.0",
      "dist_score": "0.8002283897739113",
      "total_score": "0.5829256597893162"
    },
    {
      "doc_id": "0633ea24876c9db4427c8c505badd0ff768989f4",
      "place_name": "Sydney",
      "geonameid": "2147714",
      "hit_lat": "-33.86785",
      "hit_lon": "151.20732",
      "hit_country_iso2": "AU",
      "hit_admin1_name": "New South Wales",
      "hit_admin1_code": "02",
      "feature_class": "P",
      "feature_code": "PPLA",
      "candidate_reason": "by_country",
      "hit_type": "normal",
      "rank": "7",
      "ims_facility_id": "CHA",
      "unlocode": "AUCHA",
      "facility_name": "Chatswood",
      "facility_city": "New South Wales",
      "facility_country_iso2": "AU",
      "facility_admin1": "NSW",
      "facility_lat": "-33.7967377",
      "facility_lon": "151.1814306",
      "distance_km": "8.261003705410875",
      "name_score": "0.5217391304347826",
      "admin_score": "0.0",
      "dist_score": "0.889853283927855",
      "total_score": "0.579999463439226"
    },
    {
      "doc_id": "0633ea24876c9db4427c8c505badd0ff768989f4",
      "place_name": "Sydney",
      "geonameid": "2147714",
      "hit_lat": "-33.86785",
      "hit_lon": "151.20732",
      "hit_country_iso2": "AU",
      "hit_admin1_name": "New South Wales",
      "hit_admin1_code": "02",
      "feature_class": "P",
      "feature_code": "PPLA",
      "candidate_reason": "by_country",
      "hit_type": "normal",
      "rank": "8",
      "ims_facility_id": "DSW",
      "unlocode": "AUDSW",
      "facility_name": "Padstow",
      "facility_city": "New South Wales",
      "facility_country_iso2": "AU",
      "facility_admin1": "NSW",
      "facility_lat": "-33.95",
      "facility_lon": "151.03333",
      "distance_km": "18.47295451465248",
      "name_score": "0.5714285714285714",
      "admin_score": "0.0",
      "dist_score": "0.7536939398046336",
      "total_score": "0.5689653247985329"
    },
    {
      "doc_id": "0633ea24876c9db4427c8c505badd0ff768989f4",
      "place_name": "Sydney",
      "geonameid": "2147714",
      "hit_lat": "-33.86785",
      "hit_lon": "151.20732",
      "hit_country_iso2": "AU",
      "hit_admin1_name": "New South Wales",
      "hit_admin1_code": "02",
      "feature_class": "P",
      "feature_code": "PPLA",
      "candidate_reason": "by_country",
      "hit_type": "normal",
      "rank": "9",
      "ims_facility_id": "REV",
      "unlocode": "AUREV",
      "facility_name": "Revesby",
      "facility_city": "New South Wales",
      "facility_country_iso2": "AU",
      "facility_admin1": "NSW",
      "facility_lat": "-33.95",
      "facility_lon": "151.0",
      "distance_km": "21.20102372434926",
      "name_score": "0.5714285714285714",
      "admin_score": "0.0",
      "dist_score": "0.7173196836753433",
      "total_score": "0.5580530479597458"
    },
    {
      "doc_id": "0633ea24876c9db4427c8c505badd0ff768989f4",
      "place_name": "Sydney",
      "geonameid": "2147714",
      "hit_lat": "-33.86785",
      "hit_lon": "151.20732",
      "hit_country_iso2": "AU",
      "hit_admin1_name": "New South Wales",
      "hit_admin1_code": "02",
      "feature_class": "P",
      "feature_code": "PPLA",
      "candidate_reason": "by_country",
      "hit_type": "normal",
      "rank": "10",
      "ims_facility_id": "BSA",
      "unlocode": "AUBSA",
      "facility_name": "Brighton-Le-Sands",
      "facility_city": "New South Wales",
      "facility_country_iso2": "AU",
      "facility_admin1": "NSW",
      "facility_lat": "-33.95",
      "facility_lon": "151.15",
      "distance_km": "10.555703615028092",
      "name_score": "0.5",
      "admin_score": "0.0",
      "dist_score": "0.8592572851329587",
      "total_score": "0.5577771855398876"
    },
    {
      "doc_id": "0633ea24876c9db4427c8c505badd0ff768989f4",
      "place_name": "Sydney",
      "geonameid": "2147714",
      "hit_lat": "-33.86785",
      "hit_lon": "151.20732",
      "hit_country_iso2": "AU",
      "hit_admin1_name": "New South Wales",
      "hit_admin1_code": "02",
      "feature_class": "P",
      "feature_code": "PPLA",
      "candidate_reason": "by_country",
      "hit_type": "normal",
      "rank": "11",
      "ims_facility_id": "CLF",
      "unlocode": "AUCLF",
      "facility_name": "Carlingford",
      "facility_city": "New South Wales",
      "facility_country_iso2": "AU",
      "facility_admin1": "NSW",
      "facility_lat": "-33.78333",
      "facility_lon": "151.05",
      "distance_km": "17.306394824160574",
      "name_score": "0.5",
      "admin_score": "0.0",
      "dist_score": "0.7692480690111924",
      "total_score": "0.5307744207033577"
    },
    {
      "doc_id": "0633ea24876c9db4427c8c505badd0ff768989f4",
      "place_name": "Newcastle Harbour",
      "geonameid": "2155469",
      "hit_lat": "-32.93333",
      "hit_lon": "151.78333",
      "hit_country_iso2": "AU",
      "hit_admin1_name": "New South Wales",
      "hit_admin1_code": "02",
      "feature_class": "H",
      "feature_code": "HBR",
      "candidate_reason": "by_country",
      "hit_type": "normal",
      "rank": "2",
      "ims_facility_id": "HBE",
      "unlocode": "AUHBE",
      "facility_name": "Heatherbrae",
      "facility_city": "New South Wales",
      "facility_country_iso2": "AU",
      "facility_admin1": "NSW",
      "facility_lat": "-32.78333",
      "facility_lon": "151.73333",
      "distance_km": "17.320750368775176",
      "name_score": "0.5",
      "admin_score": "0.0",
      "dist_score": "0.7690566617496644",
      "total_score": "0.5307169985248993"
    }
  ],
  "06fb4a0c20067a368ffb8b4ca08b49c06604b31f": [
    {
      "doc_id": "06fb4a0c20067a368ffb8b4ca08b49c06604b31f",
      "place_name": "Republic of Malta",
      "geonameid": "2562770",
      "hit_lat": "35.91667",
      "hit_lon": "14.43333",
      "hit_country_iso2": "MT",
      "hit_admin1_name": "",
      "hit_admin1_code": "00",
      "feature_class": "A",
      "feature_code": "PCLI",
      "candidate_reason": "by_country",
      "hit_type": "country",
      "rank": "7",
      "ims_facility_id": "MLA",
      "unlocode": "MTMLA",
      "facility_name": "Valletta",
      "facility_city": "Valletta",
      "facility_country_iso2": "MT",
      "facility_admin1": "60",
      "facility_lat": "35.88333",
      "facility_lon": "14.5",
      "distance_km": "7.057284308166763",
      "name_score": "0.5454545454545454",
      "admin_score": "0.0",
      "dist_score": "0.9059028758911098",
      "total_score": "0.5990435900400601"
    },
    {
      "doc_id": "06fb4a0c20067a368ffb8b4ca08b49c06604b31f",
      "place_name": "Red Sea",
      "geonameid": "350155",
      "hit_lat": "20.26735",
      "hit_lon": "38.53455",
      "hit_country_iso2": "",
      "hit_admin1_name": "",
      "hit_admin1_code": "",
      "feature_class": "H",
      "feature_code": "SEA",
      "candidate_reason": "by_sea_coords_600.0km",
      "hit_type": "sea",
      "rank": "1",
      "ims_facility_id": "JED",
      "unlocode": "SAJED",
      "facility_name": "Jeddah",
      "facility_city": "Makkah al Mukarramah",
      "facility_country_iso2": "SA",
      "facility_admin1": "02",
      "facility_lat": "21.46667",
      "facility_lon": "39.16667",
      "distance_km": "148.6534305144092",
      "name_score": "0.5714285714285714",
      "admin_score": "0.0",
      "dist_score": "0.7522442824759847",
      "total_score": "0.5685304275999382"
    },
    {
      "doc_id": "06fb4a0c20067a368ffb8b4ca08b49c06604b31f",
      "place_name": "Republic of Malta",
      "geonameid": "2562770",
      "hit_lat": "35.91667",
      "hit_lon": "14.43333",
      "hit_country_iso2": "MT",
      "hit_admin1_name": "",
      "hit_admin1_code": "00",
      "feature_class": "A",
      "feature_code": "PCLI",
      "candidate_reason": "by_country",
      "hit_type": "country",
      "rank": "4",
      "ims_facility_id": "MSX",
      "unlocode": "MTMSX",
      "facility_name": "Marsamxett",
      "facility_city": "Ghaxaq",
      "facility_country_iso2": "MT",
      "facility_admin1": "17",
      "facility_lat": "35.9",
      "facility_lon": "14.5",
      "distance_km": "6.284103238960873",
      "name_score": "0.45714285714285713",
      "admin_score": "0.0",
      "dist_score": "0.916211956813855",
      "total_score": "0.5491493013298707"
    },
    {
      "doc_id": "06fb4a0c20067a368ffb8b4ca08b49c06604b31f",
      "place_name": "Republic of Malta",
      "geonameid": "2562770",
      "hit_lat": "35.91667",
      "hit_lon": "14.43333",
      "hit_country_iso2": "MT",
      "hit_admin1_name": "",
      "hit_admin1_code": "00",
      "feature_class": "A",
      "feature_code": "PCLI",
      "candidate_reason": "by_country",
      "hit_type": "country",
      "rank": "17",
      "ims_facility_id": "DMP",
      "unlocode": "MTDMP",
      "facility_name": "Delimara",
      "facility_city": "Mqabba",
      "facility_country_iso2": "MT",
      "facility_admin1": "33",
      "facility_lat": "35.81667",
      "facility_lon": "14.55",
      "distance_km": "15.302616707380665",
      "name_score": "0.48",
      "admin_score": "0.0",
      "dist_score": "0.7959651105682578",
      "total_score": "0.5267895331704773"
    },
    {
      "doc_id": "06fb4a0c20067a368ffb8b4ca08b49c06604b31f",
      "place_name": "Red Sea",
      "geonameid": "350155",
      "hit_lat": "20.26735",
      "hit_lon": "38.53455",
      "hit_country_iso2": "",
      "hit_admin1_name": "",
      "hit_admin1_code": "",
      "feature_class": "H",
      "feature_code": "SEA",
      "candidate_reason": "by_sea_coords_600.0km",
      "hit_type": "sea",
      "rank": "2",
      "ims_facility_id": "PZU",
      "unlocode": "SDPZU",
      "facility_name": "Port Sudan",
      "facility_city": "Al Baḩr al Aḩmar",
      "facility_country_iso2": "SD",
      "facility_admin1": "RS",
      "facility_lat": "19.619217",
      "facility_lon": "37.211709",
      "distance_km": "155.9254801063069",
      "name_score": "0.5",
      "admin_score": "0.0",
      "dist_score": "0.7401241998228218",
      "total_score": "0.5220372599468466"
    }
  ],
  "070002683e294b57c7666a43176d52eae057ba34": [
    {
      "doc_id": "070002683e294b57c7666a43176d52eae057ba34",
      "place_name": "Novorossiysk",
      "geonameid": "518255",
      "hit_lat": "44.73188",
      "hit_lon": "37.76176",
      "hit_country_iso2": "RU",
      "hit_admin1_name": "Krasnodar Krai",
      "hit_admin1_code": "38",
      "feature_class": "P",
      "feature_code": "PPLA2",
      "candidate_reason": "by_country",
      "hit_type": "normal",
      "rank": "1",
      "ims_facility_id": "NVS",
      "unlocode": "RUNVS",
      "facility_name": "Novorossiysk",
      "facility_city": "Krasnodarskiy kray",
      "facility_country_iso2": "RU",
      "facility_admin1": "KDA",
      "facility_lat": "44.71667",
      "facility_lon": "37.76667",
      "distance_km": "1.7351901983115687",
      "name_score": "1.0",
      "admin_score": "0.0",
      "dist_score": "0.9768641306891791",
      "total_score": "0.8930592392067537"
    }
  ],
  "08c7897487c4df88bf251529d2b4f801f8f1be83": [
    {
      "doc_id": "08c7897487c4df88bf251529d2b4f801f8f1be83",
      "place_name": "Oceana County",
      "geonameid": "5004294",
      "hit_lat": "43.68178",
      "hit_lon": "-86.31683",
      "hit_country_iso2": "US",
      "hit_admin1_name": "Michigan",
      "hit_admin1_code": "MI",
      "feature_class": "A",
      "feature_code": "ADM2",
      "candidate_reason": "by_country",
      "hit_type": "sea",
      "rank": "49",
      "ims_facility_id": "BYZ",
      "unlocode": "USBYZ",
      "facility_name": "Boyne City",
      "facility_city": "Michigan",
      "facility_country_iso2": "US",
      "facility_admin1": "MI",
      "facility_lat": "45.21667",
      "facility_lon": "-85.0",
      "distance_km": "200.13083552259857",
      "name_score": "0.5217391304347826",
      "admin_score": "1.0",
      "dist_score": "0.6664486074623357",
      "total_score": "0.6129780604995702"
    },
    {
      "doc_id": "08c7897487c4df88bf251529d2b4f801f8f1be83",
      "place_name": "Oceana County",
      "geonameid": "5004294",
      "hit_lat": "43.68178",
      "hit_lon": "-86.31683",
      "hit_country_iso2": "US",
      "hit_admin1_name": "Michigan",
      "hit_admin1_code": "MI",
      "feature_class": "A",
      "feature_code": "ADM2",
      "candidate_reason": "by_country",
      "hit_type": "sea",
      "rank": "17",
      "ims_facility_id": "XXY",
      "unlocode": "USXXY",
      "facility_name": "East Leroy",
      "facility_city": "Michigan",
      "facility_country_iso2": "US",
      "facility_admin1": "MI",
      "facility_lat": "42.96667",
      "facility_lon": "-85.21667",
      "distance_km": "119.34166088308396",
      "name_score": "0.43478260869565216",
      "admin_score": "1.0",
      "dist_score": "0.8010972318615267",
      "total_score": "0.6011987347758493"
    },
    {
      "doc_id": "08c7897487c4df88bf251529d2b4f801f8f1be83",
      "place_name": "Oceana County",
      "geonameid": "5004294",
      "hit_lat": "43.68178",
      "hit_lon": "-86.31683",
      "hit_country_iso2": "US",
      "hit_admin1_name": "Michigan",
      "hit_admin1_code": "MI",
      "feature_class": "A",
      "feature_code": "ADM2",
      "candidate_reason": "by_country",
      "hit_type": "sea",
      "rank": "8",
      "ims_facility_id": "UMQ",
      "unlocode": "USUMQ",
      "facility_name": "Mecosta",
      "facility_city": "Michigan",
      "facility_country_iso2": "US",
      "facility_admin1": "MI",
      "facility_lat": "43.61667",
      "facility_lon": "-85.21667",
      "distance_km": "88.81195534253892",
      "name_score": "0.4",
      "admin_score": "1.0",
      "dist_score": "0.8519800744291017",
      "total_score": "0.5955940223287305"
    },
    {
      "doc_id": "08c7897487c4df88bf251529d2b4f801f8f1be83",
      "place_name": "Oceana County",
      "geonameid": "5004294",
      "hit_lat": "43.68178",
      "hit_lon": "-86.31683",
      "hit_country_iso2": "US",
      "hit_admin1_name": "Michigan",
      "hit_admin1_code": "MI",
      "feature_class": "A",
      "feature_code": "ADM2",
      "candidate_reason": "by_country",
      "hit_type": "sea",
      "rank": "18",
      "ims_facility_id": "SRN",
      "unlocode": "USSRN",
      "facility_name": "Saranac",
      "facility_city": "Michigan",
      "facility_country_iso2": "US",
      "facility_admin1": "MI",
      "facility_lat": "42.91667",
      "facility_lon": "-85.2",
      "distance_km": "124.12091850695388",
      "name_score": "0.4",
      "admin_score": "1.0",
      "dist_score": "0.7931318024884102",
      "total_score": "0.577939540746523"
    },
    {
      "doc_id": "08c7897487c4df88bf251529d2b4f801f8f1be83",
      "place_name": "Oceana County",
      "geonameid": "5004294",
      "hit_lat": "43.68178",
      "hit_lon": "-86.31683",
      "hit_country_iso2": "US",
      "hit_admin1_name": "Michigan",
      "hit_admin1_code": "MI",
      "feature_class": "A",
      "feature_code": "ADM2",
      "candidate_reason": "by_country",
      "hit_type": "sea",
      "rank": "6",
      "ims_facility_id": "GHN",
      "unlocode": "USGHN",
      "facility_name": "Grand Haven",
      "facility_city": "Michigan",
      "facility_country_iso2": "US",
      "facility_admin1": "MI",
      "facility_lat": "43.0630734",
      "facility_lon": "-86.2283864",
      "distance_km": "69.16743889456875",
      "name_score": "0.35294117647058826",
      "admin_score": "1.0",
      "dist_score": "0.8847209351757188",
      "total_score": "0.5771809864350685"
    },
    {
      "doc_id": "08c7897487c4df88bf251529d2b4f801f8f1be83",
      "place_name": "Oceana County",
      "geonameid": "5004294",
      "hit_lat": "43.68178",
      "hit_lon": "-86.31683",
      "hit_country_iso2": "US",
      "hit_admin1_name": "Michigan",
      "hit_admin1_code": "MI",
      "feature_class": "A",
      "feature_code": "ADM2",
      "candidate_reason": "by_country",
      "hit_type": "sea",
      "rank": "9",
      "ims_facility_id": "GRR",
      "unlocode": "USGRR",
      "facility_name": "Grand Rapids",
      "facility_city": "Michigan",
      "facility_country_iso2": "US",
      "facility_admin1": "MI",
      "facility_lat": "42.9632425",
      "facility_lon": "-85.6678639",
      "distance_km": "95.60088587934457",
      "name_score": "0.37037037037037035",
      "admin_score": "1.0",
      "dist_score": "0.8406651902010924",
      "total_score": "0.5744217792825499"
    },
    {
      "doc_id": "08c7897487c4df88bf251529d2b4f801f8f1be83",
      "place_name": "Oceana County",
      "geonameid": "5004294",
      "hit_lat": "43.68178",
      "hit_lon": "-86.31683",
      "hit_country_iso2": "US",
      "hit_admin1_name": "Michigan",
      "hit_admin1_code": "MI",
      "feature_class": "A",
      "feature_code": "ADM2",
      "candidate_reason": "by_country",
      "hit_type": "sea",
      "rank": "11",
      "ims_facility_id": "FNF",
      "unlocode": "USFNF",
      "facility_name": "Frankfort",
      "facility_city": "Michigan",
      "facility_country_iso2": "US",
      "facility_admin1": "MI",
      "facility_lat": "44.63333",
      "facility_lon": "-86.23333",
      "distance_km": "106.01698405582823",
      "name_score": "0.36363636363636365",
      "admin_score": "1.0",
      "dist_score": "0.8233050265736196",
      "total_score": "0.565173326153904"
    },
    {
      "doc_id": "08c7897487c4df88bf251529d2b4f801f8f1be83",
      "place_name": "Oceana County",
      "geonameid": "5004294",
      "hit_lat": "43.68178",
      "hit_lon": "-86.31683",
      "hit_country_iso2": "US",
      "hit_admin1_name": "Michigan",
      "hit_admin1_code": "MI",
      "feature_class": "A",
      "feature_code": "ADM2",
      "candidate_reason": "by_country",
      "hit_type": "sea",
      "rank": "1",
      "ims_facility_id": "4NJ",
      "unlocode": "US4NJ",
      "facility_name": "New Era",
      "facility_city": "Michigan",
      "facility_country_iso2": "US",
      "facility_admin1": "MI",
      "facility_lat": "43.55",
      "facility_lon": "-86.33333",
      "distance_km": "14.713348419082743",
      "name_score": "0.2857142857142857",
      "admin_score": "1.0",
      "dist_score": "0.9754777526348621",
      "total_score": "0.5640718972190301"
    },
    {
      "doc_id": "08c7897487c4df88bf251529d2b4f801f8f1be83",
      "place_name": "Oceana County",
      "geonameid": "5004294",
      "hit_lat": "43.68178",
      "hit_lon": "-86.31683",
      "hit_country_iso2": "US",
      "hit_admin1_name": "Michigan",
      "hit_admin1_code": "MI",
      "feature_class": "A",
      "feature_code": "ADM2",
      "candidate_reason": "by_country",
      "hit_type": "sea",
      "rank": "2",
      "ims_facility_id": "LDM",
      "unlocode": "USLDM",
      "facility_name": "Ludington",
      "facility_city": "Michigan",
      "facility_country_iso2": "US",
      "facility_admin1": "MI",
      "facility_lat": "43.9555406",
      "facility_lon": "-86.4477416",
      "distance_km": "32.20182354145967",
      "name_score": "0.2962962962962963",
      "admin_score": "1.0",
      "dist_score": "0.9463302940975672",
      "total_score": "0.5616768660070479"
    },
    {
      "doc_id": "08c7897487c4df88bf251529d2b4f801f8f1be83",
      "place_name": "Oceana County",
      "geonameid": "5004294",
      "hit_lat": "43.68178",
      "hit_lon": "-86.31683",
      "hit_country_iso2": "US",
      "hit_admin1_name": "Michigan",
      "hit_admin1_code": "MI",
      "feature_class": "A",
      "feature_code": "ADM2",
      "candidate_reason": "by_country",
      "hit_type": "sea",
      "rank": "109",
      "ims_facility_id": "RCY",
      "unlocode": "USRCY",
      "facility_name": "Rogers City",
      "facility_city": "Michigan",
      "facility_country_iso2": "US",
      "facility_admin1": "MI",
      "facility_lat": "45.421391",
      "facility_lon": "-83.818185",
      "distance_km": "276.77308947738027",
      "name_score": "0.5",
      "admin_score": "1.0",
      "dist_score": "0.5387115175376995",
      "total_score": "0.5616134552613098"
    },
    {
      "doc_id": "08c7897487c4df88bf251529d2b4f801f8f1be83",
      "place_name": "Oceana County",
      "geonameid": "5004294",
      "hit_lat": "43.68178",
      "hit_lon": "-86.31683",
      "hit_country_iso2": "US",
      "hit_admin1_name": "Michigan",
      "hit_admin1_code": "MI",
      "feature_class": "A",
      "feature_code": "ADM2",
      "candidate_reason": "by_country",
      "hit_type": "sea",
      "rank": "12",
      "ims_facility_id": "CDU",
      "unlocode": "USCDU",
      "facility_name": "Cedar Lake",
      "facility_city": "Michigan",
      "facility_country_iso2": "US",
      "facility_admin1": "MI",
      "facility_lat": "43.4",
      "facility_lon": "-84.96667",
      "distance_km": "113.2465057822037",
      "name_score": "0.36363636363636365",
      "admin_score": "1.0",
      "dist_score": "0.8112558236963272",
      "total_score": "0.5615585652907163"
    },
    {
      "doc_id": "08c7897487c4df88bf251529d2b4f801f8f1be83",
      "place_name": "Oceana County",
      "geonameid": "5004294",
      "hit_lat": "43.68178",
      "hit_lon": "-86.31683",
      "hit_country_iso2": "US",
      "hit_admin1_name": "Michigan",
      "hit_admin1_code": "MI",
      "feature_class": "A",
      "feature_code": "ADM2",
      "candidate_reason": "by_country",
      "hit_type": "sea",
      "rank": "3",
      "ims_facility_id": "TW2",
      "unlocode": "USTW2",
      "facility_name": "Twin Lake",
      "facility_city": "Michigan",
      "facility_country_iso2": "US",
      "facility_admin1": "MI",
      "facility_lat": "43.35",
      "facility_lon": "-86.15",
      "distance_km": "39.26842840681083",
      "name_score": "0.2857142857142857",
      "admin_score": "1.0",
      "dist_score": "0.934552619321982",
      "total_score": "0.551794357225166"
    },
    {
      "doc_id": "08c7897487c4df88bf251529d2b4f801f8f1be83",
      "place_name": "Oceana County",
      "geonameid": "5004294",
      "hit_lat": "43.68178",
      "hit_lon": "-86.31683",
      "hit_country_iso2": "US",
      "hit_admin1_name": "Michigan",
      "hit_admin1_code": "MI",
      "feature_class": "A",
      "feature_code": "ADM2",
      "candidate_reason": "by_country",
      "hit_type": "sea",
      "rank": "10",
      "ims_facility_id": "HLM",
      "unlocode": "USHLM",
      "facility_name": "Holland",
      "facility_city": "Michigan",
      "facility_country_iso2": "US",
      "facility_admin1": "MI",
      "facility_lat": "42.78333",
      "facility_lon": "-86.1",
      "distance_km": "101.43558969058977",
      "name_score": "0.3333333333333333",
      "admin_score": "1.0",
      "dist_score": "0.8309406838490171",
      "total_score": "0.549282205154705"
    },
    {
      "doc_id": "08c7897487c4df88bf251529d2b4f801f8f1be83",
      "place_name": "Oceana County",
      "geonameid": "5004294",
      "hit_lat": "43.68178",
      "hit_lon": "-86.31683",
      "hit_country_iso2": "US",
      "hit_admin1_name": "Michigan",
      "hit_admin1_code": "MI",
      "feature_class": "A",
      "feature_code": "ADM2",
      "candidate_reason": "by_country",
      "hit_type": "sea",
      "rank": "90",
      "ims_facility_id": "ESC",
      "unlocode": "USESC",
      "facility_name": "Escanaba",
      "facility_city": "Michigan",
      "facility_country_iso2": "US",
      "facility_admin1": "MI",
      "facility_lat": "45.8547075",
      "facility_lon": "-87.18677477574815",
      "distance_km": "251.18470519669592",
      "name_score": "0.45161290322580644",
      "admin_score": "1.0",
      "dist_score": "0.5813588246721735",
      "total_score": "0.5453753893371359"
    },
    {
      "doc_id": "08c7897487c4df88bf251529d2b4f801f8f1be83",
      "place_name": "Oceana County",
      "geonameid": "5004294",
      "hit_lat": "43.68178",
      "hit_lon": "-86.31683",
      "hit_country_iso2": "US",
      "hit_admin1_name": "Michigan",
      "hit_admin1_code": "MI",
      "feature_class": "A",
      "feature_code": "ADM2",
      "candidate_reason": "by_country",
      "hit_type": "sea",
      "rank": "4",
      "ims_facility_id": "MKG",
      "unlocode": "USMKG",
      "facility_name": "Muskegon",
      "facility_city": "Michigan",
      "facility_country_iso2": "US",
      "facility_admin1": "MI",
      "facility_lat": "43.21667",
      "facility_lon": "-86.23333",
      "distance_km": "52.15527856423245",
      "name_score": "0.2857142857142857",
      "admin_score": "1.0",
      "dist_score": "0.9130745357262793",
      "total_score": "0.5453509321464551"
    },
    {
      "doc_id": "08c7897487c4df88bf251529d2b4f801f8f1be83",
      "place_name": "Oceana County",
      "geonameid": "5004294",
      "hit_lat": "43.68178",
      "hit_lon": "-86.31683",
      "hit_country_iso2": "US",
      "hit_admin1_name": "Michigan",
      "hit_admin1_code": "MI",
      "feature_class": "A",
      "feature_code": "ADM2",
      "candidate_reason": "by_country",
      "hit_type": "sea",
      "rank": "5",
      "ims_facility_id": "NTR",
      "unlocode": "USNTR",
      "facility_name": "Norton Shores",
      "facility_city": "Michigan",
      "facility_country_iso2": "US",
      "facility_admin1": "MI",
      "facility_lat": "43.15",
      "facility_lon": "-86.25",
      "distance_km": "59.377096522265624",
      "name_score": "0.2857142857142857",
      "admin_score": "1.0",
      "dist_score": "0.9010381724628906",
      "total_score": "0.5417400231674385"
    },
    {
      "doc_id": "08c7897487c4df88bf251529d2b4f801f8f1be83",
      "place_name": "Oceana County",
      "geonameid": "5004294",
      "hit_lat": "43.68178",
      "hit_lon": "-86.31683",
      "hit_country_iso2": "US",
      "hit_admin1_name": "Michigan",
      "hit_admin1_code": "MI",
      "feature_class": "A",
      "feature_code": "ADM2",
      "candidate_reason": "by_country",
      "hit_type": "sea",
      "rank": "38",
      "ims_facility_id": "EQ4",
      "unlocode": "USEQ4",
      "facility_name": "East Lansing",
      "facility_city": "Michigan",
      "facility_country_iso2": "US",
      "facility_admin1": "MI",
      "facility_lat": "42.73333",
      "facility_lon": "-84.48333",
      "distance_km": "182.21378282147703",
      "name_score": "0.375",
      "admin_score": "1.0",
      "dist_score": "0.696310361964205",
      "total_score": "0.5338931085892614"
    },
    {
      "doc_id": "08c7897487c4df88bf251529d2b4f801f8f1be83",
      "place_name": "Oceana County",
      "geonameid": "5004294",
      "hit_lat": "43.68178",
      "hit_lon": "-86.31683",
      "hit_country_iso2": "US",
      "hit_admin1_name": "Michigan",
      "hit_admin1_code": "MI",
      "feature_class": "A",
      "feature_code": "ADM2",
      "candidate_reason": "by_country",
      "hit_type": "sea",
      "rank": "97",
      "ims_facility_id": "ARB",
      "unlocode": "USARB",
      "facility_name": "Ann Arbor",
      "facility_city": "Michigan",
      "facility_country_iso2": "US",
      "facility_admin1": "MI",
      "facility_lat": "42.2813722",
      "facility_lon": "-83.7484616",
      "distance_km": "260.5542345182761",
      "name_score": "0.43478260869565216",
      "admin_score": "1.0",
      "dist_score": "0.5657429424695399",
      "total_score": "0.5305924479582532"
    },
    {
      "doc_id": "08c7897487c4df88bf251529d2b4f801f8f1be83",
      "place_name": "Oceana County",
      "geonameid": "5004294",
      "hit_lat": "43.68178",
      "hit_lon": "-86.31683",
      "hit_country_iso2": "US",
      "hit_admin1_name": "Michigan",
      "hit_admin1_code": "MI",
      "feature_class": "A",
      "feature_code": "ADM2",
      "candidate_reason": "by_country",
      "hit_type": "sea",
      "rank": "7",
      "ims_facility_id": "QMM",
      "unlocode": "USQMM",
      "facility_name": "Marne",
      "facility_city": "Michigan",
      "facility_country_iso2": "US",
      "facility_admin1": "MI",
      "facility_lat": "43.03333",
      "facility_lon": "-85.81667",
      "distance_km": "82.6686988387532",
      "name_score": "0.2857142857142857",
      "admin_score": "1.0",
      "dist_score": "0.8622188352687447",
      "total_score": "0.5300942220091948"
    },
    {
      "doc_id": "08c7897487c4df88bf251529d2b4f801f8f1be83",
      "place_name": "Oceana County",
      "geonameid": "5004294",
      "hit_lat": "43.68178",
      "hit_lon": "-86.31683",
      "hit_country_iso2": "US",
      "hit_admin1_name": "Michigan",
      "hit_admin1_code": "MI",
      "feature_class": "A",
      "feature_code": "ADM2",
      "candidate_reason": "by_country",
      "hit_type": "sea",
      "rank": "68",
      "ims_facility_id": "YAN",
      "unlocode": "USYAN",
      "facility_name": "Alanson",
      "facility_city": "Michigan",
      "facility_country_iso2": "US",
      "facility_admin1": "MI",
      "facility_lat": "45.43333",
      "facility_lon": "-84.78333",
      "distance_km": "229.5441112086593",
      "name_score": "0.4",
      "admin_score": "1.0",
      "dist_score": "0.6174264813189012",
      "total_score": "0.5252279443956703"
    },
    {
      "doc_id": "08c7897487c4df88bf251529d2b4f801f8f1be83",
      "place_name": "Oceana County",
      "geonameid": "5004294",
      "hit_lat": "43.68178",
      "hit_lon": "-86.31683",
      "hit_country_iso2": "US",
      "hit_admin1_name": "Michigan",
      "hit_admin1_code": "MI",
      "feature_class": "A",
      "feature_code": "ADM2",
      "candidate_reason": "by_country",
      "hit_type": "sea",
      "rank": "21",
      "ims_facility_id": "PWQ",
      "unlocode": "USPWQ",
      "facility_name": "Portland",
      "facility_city": "Michigan",
      "facility_country_iso2": "US",
      "facility_admin1": "MI",
      "facility_lat": "42.91371675",
      "facility_lon": "-84.89673701161041",
      "distance_km": "143.18040570017595",
      "name_score": "0.3225806451612903",
      "admin_score": "1.0",
      "dist_score": "0.7613659904997068",
      "total_score": "0.5219581842466862"
    },
    {
      "doc_id": "08c7897487c4df88bf251529d2b4f801f8f1be83",
      "place_name": "Oceana County",
      "geonameid": "5004294",
      "hit_lat": "43.68178",
      "hit_lon": "-86.31683",
      "hit_country_iso2": "US",
      "hit_admin1_name": "Michigan",
      "hit_admin1_code": "MI",
      "feature_class": "A",
      "feature_code": "ADM2",
      "candidate_reason": "by_country",
      "hit_type": "sea",
      "rank": "14",
      "ims_facility_id": "DOG",
      "unlocode": "USDOG",
      "facility_name": "Douglas, Allegan",
      "facility_city": "Michigan",
      "facility_country_iso2": "US",
      "facility_admin1": "MI",
      "facility_lat": "42.63333",
      "facility_lon": "-86.2",
      "distance_km": "116.96680439530034",
      "name_score": "0.2857142857142857",
      "admin_score": "1.0",
      "dist_score": "0.8050553260078328",
      "total_score": "0.5129451692309213"
    },
    {
      "doc_id": "08c7897487c4df88bf251529d2b4f801f8f1be83",
      "place_name": "Oceana County",
      "geonameid": "5004294",
      "hit_lat": "43.68178",
      "hit_lon": "-86.31683",
      "hit_country_iso2": "US",
      "hit_admin1_name": "Michigan",
      "hit_admin1_code": "MI",
      "feature_class": "A",
      "feature_code": "ADM2",
      "candidate_reason": "by_country",
      "hit_type": "sea",
      "rank": "16",
      "ims_facility_id": "CDZ",
      "unlocode": "USCDZ",
      "facility_name": "Caledonia",
      "facility_city": "Michigan",
      "facility_country_iso2": "US",
      "facility_admin1": "MI",
      "facility_lat": "42.78333",
      "facility_lon": "-85.51667",
      "distance_km": "119.09024995255683",
      "name_score": "0.2857142857142857",
      "admin_score": "1.0",
      "dist_score": "0.801516250079072",
      "total_score": "0.511883446452293"
    },
    {
      "doc_id": "08c7897487c4df88bf251529d2b4f801f8f1be83",
      "place_name": "Oceana County",
      "geonameid": "5004294",
      "hit_lat": "43.68178",
      "hit_lon": "-86.31683",
      "hit_country_iso2": "US",
      "hit_admin1_name": "Michigan",
      "hit_admin1_code": "MI",
      "feature_class": "A",
      "feature_code": "ADM2",
      "candidate_reason": "by_country",
      "hit_type": "sea",
      "rank": "132",
      "ims_facility_id": "DET",
      "unlocode": "USDET",
      "facility_name": "Detroit",
      "facility_city": "Michigan",
      "facility_country_iso2": "US",
      "facility_admin1": "MI",
      "facility_lat": "42.31667",
      "facility_lon": "-83.03333",
      "distance_km": "307.12098198216427",
      "name_score": "0.43478260869565216",
      "admin_score": "1.0",
      "dist_score": "0.4881316966963929",
      "total_score": "0.5073090742263091"
    },
    {
      "doc_id": "08c7897487c4df88bf251529d2b4f801f8f1be83",
      "place_name": "Oceana County",
      "geonameid": "5004294",
      "hit_lat": "43.68178",
      "hit_lon": "-86.31683",
      "hit_country_iso2": "US",
      "hit_admin1_name": "Michigan",
      "hit_admin1_code": "MI",
      "feature_class": "A",
      "feature_code": "ADM2",
      "candidate_reason": "by_country",
      "hit_type": "sea",
      "rank": "27",
      "ims_facility_id": "FU7",
      "unlocode": "USFU7",
      "facility_name": "Sanford",
      "facility_city": "Michigan",
      "facility_country_iso2": "US",
      "facility_admin1": "MI",
      "facility_lat": "43.66667",
      "facility_lon": "-84.36667",
      "distance_km": "156.846673400678",
      "name_score": "0.3",
      "admin_score": "1.0",
      "dist_score": "0.7385888776655367",
      "total_score": "0.501576663299661"
    },
    {
      "doc_id": "08c7897487c4df88bf251529d2b4f801f8f1be83",
      "place_name": "Oceana County",
      "geonameid": "5004294",
      "hit_lat": "43.68178",
      "hit_lon": "-86.31683",
      "hit_country_iso2": "US",
      "hit_admin1_name": "Michigan",
      "hit_admin1_code": "MI",
      "feature_class": "A",
      "feature_code": "ADM2",
      "candidate_reason": "by_country",
      "hit_type": "sea",
      "rank": "20",
      "ims_facility_id": "SOH",
      "unlocode": "USSOH",
      "facility_name": "South Haven",
      "facility_city": "Michigan",
      "facility_country_iso2": "US",
      "facility_admin1": "MI",
      "facility_lat": "42.4030865",
      "facility_lon": "-86.2736407",
      "distance_km": "142.2275375341481",
      "name_score": "0.2857142857142857",
      "admin_score": "1.0",
      "dist_score": "0.7629541041097532",
      "total_score": "0.5003148026614973"
    }
  ],
  "09b9cf5aa91991232d6363953053d1a321b957b4": [
    {
      "doc_id": "09b9cf5aa91991232d6363953053d1a321b957b4",
      "place_name": "Istanbul",
      "geonameid": "745044",
      "hit_lat": "41.01384",
      "hit_lon": "28.94966",
      "hit_country_iso2": "TR",
      "hit_admin1_name": "Istanbul",
      "hit_admin1_code": "34",
      "feature_class": "P",
      "feature_code": "PPLA",
      "candidate_reason": "by_country",
      "hit_type": "normal",
      "rank": "1",
      "ims_facility_id": "MAD",
      "unlocode": "TRMAD",
      "facility_name": "Mardas",
      "facility_city": "Istanbul",
      "facility_country_iso2": "TR",
      "facility_admin1": "34",
      "facility_lat": "41.01667",
      "facility_lon": "28.95",
      "distance_km": "0.31597195679006806",
      "name_score": "1.0",
      "admin_score": "1.0",
      "dist_score": "0.9957870405761324",
      "total_score": "0.9987361121728396"
    },
    {
      "doc_id": "09b9cf5aa91991232d6363953053d1a321b957b4",
      "place_name": "Istanbul",
      "geonameid": "745044",
      "hit_lat": "41.01384",
      "hit_lon": "28.94966",
      "hit_country_iso2": "TR",
      "hit_admin1_name": "Istanbul",
      "hit_admin1_code": "34",
      "feature_class": "P",
      "feature_code": "PPLA",
      "candidate_reason": "by_country",
      "hit_type": "normal",
      "rank": "2",
      "ims_facility_id": "IST",
      "unlocode": "TRIST",
      "facility_name": "Istanbul",
      "facility_city": "Istanbul",
      "facility_country_iso2": "TR",
      "facility_admin1": "34",
      "facility_lat": "41.01667",
      "facility_lon": "28.96667",
      "distance_km": "1.4614281098973656",
      "name_score": "1.0",
      "admin_score": "1.0",
      "dist_score": "0.9805142918680352",
      "total_score": "0.9941542875604105"
    },
    {
      "doc_id": "09b9cf5aa91991232d6363953053d1a321b957b4",
      "place_name": "Istanbul",
      "geonameid": "745044",
      "hit_lat": "41.01384",
      "hit_lon": "28.94966",
      "hit_country_iso2": "TR",
      "hit_admin1_name": "Istanbul",
      "hit_admin1_code": "34",
      "feature_class": "P",
      "feature_code": "PPLA",
      "candidate_reason": "by_country",
      "hit_type": "normal",
      "rank": "3",
      "ims_facility_id": "GTA",
      "unlocode": "TRGTA",
      "facility_name": "Galata",
      "facility_city": "Istanbul",
      "facility_country_iso2": "TR",
      "facility_admin1": "34",
      "facility_lat": "41.0252857",
      "facility_lon": "28.9727922",
      "distance_km": "2.320774565275068",
      "name_score": "1.0",
      "admin_score": "1.0",
      "dist_score": "0.9690563391296657",
      "total_score": "0.9907169017388996"
    },
    {
      "doc_id": "09b9cf5aa91991232d6363953053d1a321b957b4",
      "place_name": "Istanbul",
      "geonameid": "745044",
      "hit_lat": "41.01384",
      "hit_lon": "28.94966",
      "hit_country_iso2": "TR",
      "hit_admin1_name": "Istanbul",
      "hit_admin1_code": "34",
      "feature_class": "P",
      "feature_code": "PPLA",
      "candidate_reason": "by_country",
      "hit_type": "normal",
      "rank": "4",
      "ims_facility_id": "HAS",
      "unlocode": "TRHAS",
      "facility_name": "Hasköy",
      "facility_city": "Istanbul",
      "facility_country_iso2": "TR",
      "facility_admin1": "34",
      "facility_lat": "41.03333",
      "facility_lon": "28.96667",
      "distance_km": "2.594791147769354",
      "name_score": "1.0",
      "admin_score": "1.0",
      "dist_score": "0.9654027846964086",
      "total_score": "0.9896208354089225"
    },
    {
      "doc_id": "09b9cf5aa91991232d6363953053d1a321b957b4",
      "place_name": "Sinop",
      "geonameid": "739600",
      "hit_lat": "42.02683",
      "hit_lon": "35.16253",
      "hit_country_iso2": "TR",
      "hit_admin1_name": "Sinop",
      "hit_admin1_code": "57",
      "feature_class": "P",
      "feature_code": "PPLA",
      "candidate_reason": "by_country",
      "hit_type": "normal",
      "rank": "1",
      "ims_facility_id": "SIC",
      "unlocode": "TRSIC",
      "facility_name": "Sinop",
      "facility_city": "Sinop",
      "facility_country_iso2": "TR",
      "facility_admin1": "57",
      "facility_lat": "42.01667",
      "facility_lon": "35.13333",
      "distance_km": "2.663545029718922",
      "name_score": "1.0",
      "admin_score": "1.0",
      "dist_score": "0.9644860662704143",
      "total_score": "0.9893458198811242"
    },
    {
      "doc_id": "09b9cf5aa91991232d6363953053d1a321b957b4",
      "place_name": "Istanbul",
      "geonameid": "745044",
      "hit_lat": "41.01384",
      "hit_lon": "28.94966",
      "hit_country_iso2": "TR",
      "hit_admin1_name": "Istanbul",
      "hit_admin1_code": "34",
      "feature_class": "P",
      "feature_code": "PPLA",
      "candidate_reason": "by_country",
      "hit_type": "normal",
      "rank": "5",
      "ims_facility_id": "KKY",
      "unlocode": "TRKKY",
      "facility_name": "Karaköy/Istambul",
      "facility_city": "Istanbul",
      "facility_country_iso2": "TR",
      "facility_admin1": "34",
      "facility_lat": "41.03333",
      "facility_lon": "28.98333",
      "distance_km": "3.5601838755795123",
      "name_score": "1.0",
      "admin_score": "1.0",
      "dist_score": "0.9525308816589398",
      "total_score": "0.9857592644976819"
    },
    {
      "doc_id": "09b9cf5aa91991232d6363953053d1a321b957b4",
      "place_name": "Istanbul",
      "geonameid": "745044",
      "hit_lat": "41.01384",
      "hit_lon": "28.94966",
      "hit_country_iso2": "TR",
      "hit_admin1_name": "Istanbul",
      "hit_admin1_code": "34",
      "feature_class": "P",
      "feature_code": "PPLA",
      "candidate_reason": "by_country",
      "hit_type": "normal",
      "rank": "6",
      "ims_facility_id": "SUT",
      "unlocode": "TRSUT",
      "facility_name": "Sutluce",
      "facility_city": "Istanbul",
      "facility_country_iso2": "TR",
      "facility_admin1": "34",
      "facility_lat": "41.0510201",
      "facility_lon": "28.944692",
      "distance_km": "4.155186406106986",
      "name_score": "1.0",
      "admin_score": "1.0",
      "dist_score": "0.9445975145852402",
      "total_score": "0.983379254375572"
    },
    {
      "doc_id": "09b9cf5aa91991232d6363953053d1a321b957b4",
      "place_name": "Istanbul",
      "geonameid": "745044",
      "hit_lat": "41.01384",
      "hit_lon": "28.94966",
      "hit_country_iso2": "TR",
      "hit_admin1_name": "Istanbul",
      "hit_admin1_code": "34",
      "feature_class": "P",
      "feature_code": "PPLA",
      "candidate_reason": "by_country",
      "hit_type": "normal",
      "rank": "7",
      "ims_facility_id": "ZEY",
      "unlocode": "TRZEY",
      "facility_name": "Zeytinburnu",
      "facility_city": "Istanbul",
      "facility_country_iso2": "TR",
      "facility_admin1": "34",
      "facility_lat": "40.9898653",
      "facility_lon": "28.9037467",
      "distance_km": "4.685286115954688",
      "name_score": "1.0",
      "admin_score": "1.0",
      "dist_score": "0.9375295184539375",
      "total_score": "0.9812588555361812"
    },
    {
      "doc_id": "09b9cf5aa91991232d6363953053d1a321b957b4",
      "place_name": "Istanbul",
      "geonameid": "745044",
      "hit_lat": "41.01384",
      "hit_lon": "28.94966",
      "hit_country_iso2": "TR",
      "hit_admin1_name": "Istanbul",
      "hit_admin1_code": "34",
      "feature_class": "P",
      "feature_code": "PPLA",
      "candidate_reason": "by_country",
      "hit_type": "normal",
      "rank": "8",
      "ims_facility_id": "HAY",
      "unlocode": "TRHAY",
      "facility_name": "Haydarpasa",
      "facility_city": "Istanbul",
      "facility_country_iso2": "TR",
      "facility_admin1": "34",
      "facility_lat": "40.9975593",
      "facility_lon": "29.0213686",
      "distance_km": "6.283682947068197",
      "name_score": "1.0",
      "admin_score": "1.0",
      "dist_score": "0.9162175607057573",
      "total_score": "0.9748652682117271"
    },
    {
      "doc_id": "09b9cf5aa91991232d6363953053d1a321b957b4",
      "place_name": "Istanbul",
      "geonameid": "745044",
      "hit_lat": "41.01384",
      "hit_lon": "28.94966",
      "hit_country_iso2": "TR",
      "hit_admin1_name": "Istanbul",
      "hit_admin1_code": "34",
      "feature_class": "P",
      "feature_code": "PPLA",
      "candidate_reason": "by_country",
      "hit_type": "normal",
      "rank": "9",
      "ims_facility_id": "BTS",
      "unlocode": "TRBTS",
      "facility_name": "Besiktas",
      "facility_city": "Istanbul",
      "facility_country_iso2": "TR",
      "facility_admin1": "34",
      "facility_lat": "41.05",
      "facility_lon": "29.01667",
      "distance_km": "6.910838553101807",
      "name_score": "1.0",
      "admin_score": "1.0",
      "dist_score": "0.9078554859586425",
      "total_score": "0.9723566457875926"
    },
    {
      "doc_id": "09b9cf5aa91991232d6363953053d1a321b957b4",
      "place_name": "Istanbul",
      "geonameid": "745044",
      "hit_lat": "41.01384",
      "hit_lon": "28.94966",
      "hit_country_iso2": "TR",
      "hit_admin1_name": "Istanbul",
      "hit_admin1_code": "34",
      "feature_class": "P",
      "feature_code": "PPLA",
      "candidate_reason": "by_country",
      "hit_type": "normal",
      "rank": "10",
      "ims_facility_id": "USK",
      "unlocode": "TRUSK",
      "facility_name": "Üsküdar",
      "facility_city": "Istanbul",
      "facility_country_iso2": "TR",
      "facility_admin1": "34",
      "facility_lat": "41.01667",
      "facility_lon": "29.05",
      "distance_km": "8.424449987746042",
      "name_score": "1.0",
      "admin_score": "1.0",
      "dist_score": "0.887674000163386",
      "total_score": "0.9663022000490157"
    },
    {
      "doc_id": "09b9cf5aa91991232d6363953053d1a321b957b4",
      "place_name": "Istanbul",
      "geonameid": "745044",
      "hit_lat": "41.01384",
      "hit_lon": "28.94966",
      "hit_country_iso2": "TR",
      "hit_admin1_name": "Istanbul",
      "hit_admin1_code": "34",
      "feature_class": "P",
      "feature_code": "PPLA",
      "candidate_reason": "by_country",
      "hit_type": "normal",
      "rank": "11",
      "ims_facility_id": "BBI",
      "unlocode": "TRBBI",
      "facility_name": "Beylerbeyi",
      "facility_city": "Istanbul",
      "facility_country_iso2": "TR",
      "facility_admin1": "34",
      "facility_lat": "41.05",
      "facility_lon": "29.05",
      "distance_km": "9.327559559273737",
      "name_score": "1.0",
      "admin_score": "1.0",
      "dist_score": "0.8756325392096835",
      "total_score": "0.962689761762905"
    },
    {
      "doc_id": "09b9cf5aa91991232d6363953053d1a321b957b4",
      "place_name": "Istanbul",
      "geonameid": "745044",
      "hit_lat": "41.01384",
      "hit_lon": "28.94966",
      "hit_country_iso2": "TR",
      "hit_admin1_name": "Istanbul",
      "hit_admin1_code": "34",
      "feature_class": "P",
      "feature_code": "PPLA",
      "candidate_reason": "by_country",
      "hit_type": "normal",
      "rank": "12",
      "ims_facility_id": "KMX",
      "unlocode": "TRKMX",
      "facility_name": "Kumport",
      "facility_city": "Istanbul",
      "facility_country_iso2": "TR",
      "facility_admin1": "34",
      "facility_lat": "40.95",
      "facility_lon": "28.81667",
      "distance_km": "13.229377861697365",
      "name_score": "1.0",
      "admin_score": "1.0",
      "dist_score": "0.8236082951773684",
      "total_score": "0.9470824885532104"
    },
    {
      "doc_id": "09b9cf5aa91991232d6363953053d1a321b957b4",
      "place_name": "Istanbul",
      "geonameid": "745044",
      "hit_lat": "41.01384",
      "hit_lon": "28.94966",
      "hit_country_iso2": "TR",
      "hit_admin1_name": "Istanbul",
      "hit_admin1_code": "34",
      "feature_class": "P",
      "feature_code": "PPLA",
      "candidate_reason": "by_country",
      "hit_type": "normal",
      "rank": "13",
      "ims_facility_id": "CUB",
      "unlocode": "TRCUB",
      "facility_name": "Cubuklu",
      "facility_city": "Istanbul",
      "facility_country_iso2": "TR",
      "facility_admin1": "34",
      "facility_lat": "41.105633",
      "facility_lon": "29.08403",
      "distance_km": "15.20216271977254",
      "name_score": "1.0",
      "admin_score": "1.0",
      "dist_score": "0.7973044970696994",
      "total_score": "0.9391913491209097"
    },
    {
      "doc_id": "09b9cf5aa91991232d6363953053d1a321b957b4",
      "place_name": "Istanbul",
      "geonameid": "745044",
      "hit_lat": "41.01384",
      "hit_lon": "28.94966",
      "hit_country_iso2": "TR",
      "hit_admin1_name": "Istanbul",
      "hit_admin1_code": "34",
      "feature_class": "P",
      "feature_code": "PPLA",
      "candidate_reason": "by_country",
      "hit_type": "normal",
      "rank": "14",
      "ims_facility_id": "BEY",
      "unlocode": "TRBEY",
      "facility_name": "Beykoz",
      "facility_city": "Istanbul",
      "facility_country_iso2": "TR",
      "facility_admin1": "34",
      "facility_lat": "41.1343001",
      "facility_lon": "29.0920378",
      "distance_km": "17.94032942102146",
      "name_score": "1.0",
      "admin_score": "1.0",
      "dist_score": "0.7607956077197139",
      "total_score": "0.9282386823159141"
    },
    {
      "doc_id": "09b9cf5aa91991232d6363953053d1a321b957b4",
      "place_name": "Istanbul",
      "geonameid": "745044",
      "hit_lat": "41.01384",
      "hit_lon": "28.94966",
      "hit_country_iso2": "TR",
      "hit_admin1_name": "Istanbul",
      "hit_admin1_code": "34",
      "feature_class": "P",
      "feature_code": "PPLA",
      "candidate_reason": "by_country",
      "hit_type": "normal",
      "rank": "15",
      "ims_facility_id": "MAL",
      "unlocode": "TRMAL",
      "facility_name": "Maltepe",
      "facility_city": "Istanbul",
      "facility_country_iso2": "TR",
      "facility_admin1": "34",
      "facility_lat": "40.9247539",
      "facility_lon": "29.1310782",
      "distance_km": "18.169513486499838",
      "name_score": "1.0",
      "admin_score": "1.0",
      "dist_score": "0.7577398201800022",
      "total_score": "0.9273219460540006"
    },
    {
      "doc_id": "09b9cf5aa91991232d6363953053d1a321b957b4",
      "place_name": "Istanbul",
      "geonameid": "745044",
      "hit_lat": "41.01384",
      "hit_lon": "28.94966",
      "hit_country_iso2": "TR",
      "hit_admin1_name": "Istanbul",
      "hit_admin1_code": "34",
      "feature_class": "P",
      "feature_code": "PPLA",
      "candidate_reason": "by_country",
      "hit_type": "normal",
      "rank": "16",
      "ims_facility_id": "FRZ",
      "unlocode": "TRFRZ",
      "facility_name": "Firuzköy",
      "facility_city": "Istanbul",
      "facility_country_iso2": "TR",
      "facility_admin1": "34",
      "facility_lat": "41.0",
      "facility_lon": "28.7",
      "distance_km": "21.005678609141018",
      "name_score": "1.0",
      "admin_score": "1.0",
      "dist_score": "0.7199242852114531",
      "total_score": "0.9159772855634359"
    },
    {
      "doc_id": "09b9cf5aa91991232d6363953053d1a321b957b4",
      "place_name": "Istanbul",
      "geonameid": "745044",
      "hit_lat": "41.01384",
      "hit_lon": "28.94966",
      "hit_country_iso2": "TR",
      "hit_admin1_name": "Istanbul",
      "hit_admin1_code": "34",
      "feature_class": "P",
      "feature_code": "PPLA",
      "candidate_reason": "by_country",
      "hit_type": "normal",
      "rank": "17",
      "ims_facility_id": "HAR",
      "unlocode": "TRHAR",
      "facility_name": "Haramidere",
      "facility_city": "Istanbul",
      "facility_country_iso2": "TR",
      "facility_admin1": "34",
      "facility_lat": "41.0058649",
      "facility_lon": "28.6779302",
      "distance_km": "22.817351911597846",
      "name_score": "1.0",
      "admin_score": "1.0",
      "dist_score": "0.6957686411786954",
      "total_score": "0.9087305923536085"
    },
    {
      "doc_id": "09b9cf5aa91991232d6363953053d1a321b957b4",
      "place_name": "Istanbul",
      "geonameid": "745044",
      "hit_lat": "41.01384",
      "hit_lon": "28.94966",
      "hit_country_iso2": "TR",
      "hit_admin1_name": "Istanbul",
      "hit_admin1_code": "34",
      "feature_class": "P",
      "feature_code": "PPLA",
      "candidate_reason": "by_country",
      "hit_type": "normal",
      "rank": "18",
      "ims_facility_id": "MPT",
      "unlocode": "TRMPT",
      "facility_name": "Marport",
      "facility_city": "Istanbul",
      "facility_country_iso2": "TR",
      "facility_admin1": "34",
      "facility_lat": "40.96540315",
      "facility_lon": "28.673306926028463",
      "distance_km": "23.81225505028535",
      "name_score": "1.0",
      "admin_score": "1.0",
      "dist_score": "0.6825032659961954",
      "total_score": "0.9047509797988585"
    },
    {
      "doc_id": "09b9cf5aa91991232d6363953053d1a321b957b4",
      "place_name": "Istanbul",
      "geonameid": "745044",
      "hit_lat": "41.01384",
      "hit_lon": "28.94966",
      "hit_country_iso2": "TR",
      "hit_admin1_name": "Istanbul",
      "hit_admin1_code": "34",
      "feature_class": "P",
      "feature_code": "PPLA",
      "candidate_reason": "by_country",
      "hit_type": "normal",
      "rank": "19",
      "ims_facility_id": "KAR",
      "unlocode": "TRKAR",
      "facility_name": "Kartal",
      "facility_city": "Istanbul",
      "facility_country_iso2": "TR",
      "facility_admin1": "34",
      "facility_lat": "40.88858",
      "facility_lon": "29.1856536",
      "distance_km": "24.223895022480257",
      "name_score": "1.0",
      "admin_score": "1.0",
      "dist_score": "0.6770147330335966",
      "total_score": "0.903104419910079"
    },
    {
      "doc_id": "09b9cf5aa91991232d6363953053d1a321b957b4",
      "place_name": "Moscow",
      "geonameid": "524901",
      "hit_lat": "55.75204",
      "hit_lon": "37.61781",
      "hit_country_iso2": "RU",
      "hit_admin1_name": "Moscow",
      "hit_admin1_code": "48",
      "feature_class": "P",
      "feature_code": "PPLC",
      "candidate_reason": "by_country",
      "hit_type": "normal",
      "rank": "1",
      "ims_facility_id": "MOW",
      "unlocode": "RUMOW",
      "facility_name": "Moskva",
      "facility_city": "Moskva",
      "facility_country_iso2": "RU",
      "facility_admin1": "MOW",
      "facility_lat": "55.75",
      "facility_lon": "37.6",
      "distance_km": "1.137388851143242",
      "name_score": "1.0",
      "admin_score": "0.0",
      "dist_score": "0.9848348153180901",
      "total_score": "0.895450444595427"
    },
    {
      "doc_id": "09b9cf5aa91991232d6363953053d1a321b957b4",
      "place_name": "Mersin",
      "geonameid": "304531",
      "hit_lat": "36.81196",
      "hit_lon": "34.63886",
      "hit_country_iso2": "TR",
      "hit_admin1_name": "Mersin",
      "hit_admin1_code": "32",
      "feature_class": "P",
      "feature_code": "PPLA",
      "candidate_reason": "by_country",
      "hit_type": "normal",
      "rank": "1",
      "ims_facility_id": "MFZ",
      "unlocode": "TRMFZ",
      "facility_name": "Mersin-Free Zone",
      "facility_city": "Mersin",
      "facility_country_iso2": "TR",
      "facility_admin1": "33",
      "facility_lat": "36.8",
      "facility_lon": "34.63333",
      "distance_km": "1.4180998814534531",
      "name_score": "1.0",
      "admin_score": "0.0",
      "dist_score": "0.9810920015806206",
      "total_score": "0.8943276004741861"
    },
    {
      "doc_id": "09b9cf5aa91991232d6363953053d1a321b957b4",
      "place_name": "Istanbul",
      "geonameid": "745044",
      "hit_lat": "41.01384",
      "hit_lon": "28.94966",
      "hit_country_iso2": "TR",
      "hit_admin1_name": "Istanbul",
      "hit_admin1_code": "34",
      "feature_class": "P",
      "feature_code": "PPLA",
      "candidate_reason": "by_country",
      "hit_type": "normal",
      "rank": "20",
      "ims_facility_id": "9AK",
      "unlocode": "TR9AK",
      "facility_name": "Pasaköy",
      "facility_city": "Istanbul",
      "facility_country_iso2": "TR",
      "facility_admin1": "34",
      "facility_lat": "41.01667",
      "facility_lon": "29.26667",
      "distance_km": "26.59912864621802",
      "name_score": "1.0",
      "admin_score": "1.0",
      "dist_score": "0.6453449513837597",
      "total_score": "0.8936034854151279"
    },
    {
      "doc_id": "09b9cf5aa91991232d6363953053d1a321b957b4",
      "place_name": "Istanbul",
      "geonameid": "745044",
      "hit_lat": "41.01384",
      "hit_lon": "28.94966",
      "hit_country_iso2": "TR",
      "hit_admin1_name": "Istanbul",
      "hit_admin1_code": "34",
      "feature_class": "P",
      "feature_code": "PPLA",
      "candidate_reason": "by_country",
      "hit_type": "normal",
      "rank": "21",
      "ims_facility_id": "PEN",
      "unlocode": "TRPEN",
      "facility_name": "Pendik",
      "facility_city": "Istanbul",
      "facility_country_iso2": "TR",
      "facility_admin1": "34",
      "facility_lat": "40.8768715",
      "facility_lon": "29.2349672",
      "distance_km": "28.393180282231654",
      "name_score": "1.0",
      "admin_score": "1.0",
      "dist_score": "0.621424262903578",
      "total_score": "0.8864272788710733"
    },
    {
      "doc_id": "09b9cf5aa91991232d6363953053d1a321b957b4",
      "place_name": "Istanbul",
      "geonameid": "745044",
      "hit_lat": "41.01384",
      "hit_lon": "28.94966",
      "hit_country_iso2": "TR",
      "hit_admin1_name": "Istanbul",
      "hit_admin1_code": "34",
      "feature_class": "P",
      "feature_code": "PPLA",
      "candidate_reason": "by_country",
      "hit_type": "normal",
      "rank": "22",
      "ims_facility_id": "TUZ",
      "unlocode": "TRTUZ",
      "facility_name": "Tuzla",
      "facility_city": "Istanbul",
      "facility_country_iso2": "TR",
      "facility_admin1": "34",
      "facility_lat": "40.83333",
      "facility_lon": "29.25",
      "distance_km": "32.24304569602503",
      "name_score": "1.0",
      "admin_score": "1.0",
      "dist_score": "0.5700927240529996",
      "total_score": "0.8710278172158998"
    },
    {
      "doc_id": "09b9cf5aa91991232d6363953053d1a321b957b4",
      "place_name": "Istanbul",
      "geonameid": "745044",
      "hit_lat": "41.01384",
      "hit_lon": "28.94966",
      "hit_country_iso2": "TR",
      "hit_admin1_name": "Istanbul",
      "hit_admin1_code": "34",
      "feature_class": "P",
      "feature_code": "PPLA",
      "candidate_reason": "by_country",
      "hit_type": "normal",
      "rank": "23",
      "ims_facility_id": "MIM",
      "unlocode": "TRMIM",
      "facility_name": "Mimarsinan",
      "facility_city": "Istanbul",
      "facility_country_iso2": "TR",
      "facility_admin1": "34",
      "facility_lat": "41.01667",
      "facility_lon": "28.55",
      "distance_km": "33.53310126391056",
      "name_score": "1.0",
      "admin_score": "1.0",
      "dist_score": "0.5528919831478591",
      "total_score": "0.8658675949443577"
    },
    {
      "doc_id": "09b9cf5aa91991232d6363953053d1a321b957b4",
      "place_name": "Mersin",
      "geonameid": "304531",
      "hit_lat": "36.81196",
      "hit_lon": "34.63886",
      "hit_country_iso2": "TR",
      "hit_admin1_name": "Mersin",
      "hit_admin1_code": "32",
      "feature_class": "P",
      "feature_code": "PPLA",
      "candidate_reason": "by_country",
      "hit_type": "normal",
      "rank": "2",
      "ims_facility_id": "MER",
      "unlocode": "TRMER",
      "facility_name": "Mersin",
      "facility_city": "Mersin",
      "facility_country_iso2": "TR",
      "facility_admin1": "33",
      "facility_lat": "36.71667",
      "facility_lon": "34.63333",
      "distance_km": "10.60720917767038",
      "name_score": "1.0",
      "admin_score": "0.0",
      "dist_score": "0.8585705442977283",
      "total_score": "0.8575711632893184"
    },
    {
      "doc_id": "09b9cf5aa91991232d6363953053d1a321b957b4",
      "place_name": "Sinop",
      "geonameid": "739600",
      "hit_lat": "42.02683",
      "hit_lon": "35.16253",
      "hit_country_iso2": "TR",
      "hit_admin1_name": "Sinop",
      "hit_admin1_code": "57",
      "feature_class": "P",
      "feature_code": "PPLA",
      "candidate_reason": "by_country",
      "hit_type": "normal",
      "rank": "2",
      "ims_facility_id": "AYA",
      "unlocode": "TRAYA",
      "facility_name": "Ayancik",
      "facility_city": "Sinop",
      "facility_country_iso2": "TR",
      "facility_admin1": "57",
      "facility_lat": "41.93333",
      "facility_lon": "34.58333",
      "distance_km": "48.99230459285557",
      "name_score": "1.0",
      "admin_score": "1.0",
      "dist_score": "0.3467692720952591",
      "total_score": "0.8040307816285777"
    },
    {
      "doc_id": "09b9cf5aa91991232d6363953053d1a321b957b4",
      "place_name": "Istanbul",
      "geonameid": "745044",
      "hit_lat": "41.01384",
      "hit_lon": "28.94966",
      "hit_country_iso2": "TR",
      "hit_admin1_name": "Istanbul",
      "hit_admin1_code": "34",
      "feature_class": "P",
      "feature_code": "PPLA",
      "candidate_reason": "by_country",
      "hit_type": "normal",
      "rank": "24",
      "ims_facility_id": "SER",
      "unlocode": "TRSER",
      "facility_name": "Serviburun",
      "facility_city": "Istanbul",
      "facility_country_iso2": "TR",
      "facility_admin1": "34",
      "facility_lat": "",
      "facility_lon": "",
      "distance_km": "",
      "name_score": "1.0",
      "admin_score": "1.0",
      "dist_score": "0.0",
      "total_score": "0.7"
    }
  ],
  "09fed84a37fc85d45202a3760ea2a64cdf42beb7": [
    {
      "doc_id": "09fed84a37fc85d45202a3760ea2a64cdf42beb7",
      "place_name": "Oceana County",
      "geonameid": "5004294",
      "hit_lat": "43.68178",
      "hit_lon": "-86.31683",
      "hit_country_iso2": "US",
      "hit_admin1_name": "Michigan",
      "hit_admin1_code": "MI",
      "feature_class": "A",
      "feature_code": "ADM2",
      "candidate_reason": "by_country",
      "hit_type": "sea",
      "rank": "49",
      "ims_facility_id": "BYZ",
      "unlocode": "USBYZ",
      "facility_name": "Boyne City",
      "facility_city": "Michigan",
      "facility_country_iso2": "US",
      "facility_admin1": "MI",
      "facility_lat": "45.21667",
      "facility_lon": "-85.0",
      "distance_km": "200.13083552259857",
      "name_score": "0.5217391304347826",
      "admin_score": "1.0",
      "dist_score": "0.6664486074623357",
      "total_score": "0.6129780604995702"
    },
    {
      "doc_id": "09fed84a37fc85d45202a3760ea2a64cdf42beb7",
      "place_name": "Oceana County",
      "geonameid": "5004294",
      "hit_lat": "43.68178",
      "hit_lon": "-86.31683",
      "hit_country_iso2": "US",
      "hit_admin1_name": "Michigan",
      "hit_admin1_code": "MI",
      "feature_class": "A",
      "feature_code": "ADM2",
      "candidate_reason": "by_country",
      "hit_type": "sea",
      "rank": "17",
      "ims_facility_id": "XXY",
      "unlocode": "USXXY",
      "facility_name": "East Leroy",
      "facility_city": "Michigan",
      "facility_country_iso2": "US",
      "facility_admin1": "MI",
      "facility_lat": "42.96667",
      "facility_lon": "-85.21667",
      "distance_km": "119.34166088308396",
      "name_score": "0.43478260869565216",
      "admin_score": "1.0",
      "dist_score": "0.8010972318615267",
      "total_score": "0.6011987347758493"
    },
    {
      "doc_id": "09fed84a37fc85d45202a3760ea2a64cdf42beb7",
      "place_name": "Oceana County",
      "geonameid": "5004294",
      "hit_lat": "43.68178",
      "hit_lon": "-86.31683",
      "hit_country_iso2": "US",
      "hit_admin1_name": "Michigan",
      "hit_admin1_code": "MI",
      "feature_class": "A",
      "feature_code": "ADM2",
      "candidate_reason": "by_country",
      "hit_type": "sea",
      "rank": "8",
      "ims_facility_id": "UMQ",
      "unlocode": "USUMQ",
      "facility_name": "Mecosta",
      "facility_city": "Michigan",
      "facility_country_iso2": "US",
      "facility_admin1": "MI",
      "facility_lat": "43.61667",
      "facility_lon": "-85.21667",
      "distance_km": "88.81195534253892",
      "name_score": "0.4",
      "admin_score": "1.0",
      "dist_score": "0.8519800744291017",
      "total_score": "0.5955940223287305"
    },
    {
      "doc_id": "09fed84a37fc85d45202a3760ea2a64cdf42beb7",
      "place_name": "Oceana County",
      "geonameid": "5004294",
      "hit_lat": "43.68178",
      "hit_lon": "-86.31683",
      "hit_country_iso2": "US",
      "hit_admin1_name": "Michigan",
      "hit_admin1_code": "MI",
      "feature_class": "A",
      "feature_code": "ADM2",
      "candidate_reason": "by_country",
      "hit_type": "sea",
      "rank": "18",
      "ims_facility_id": "SRN",
      "unlocode": "USSRN",
      "facility_name": "Saranac",
      "facility_city": "Michigan",
      "facility_country_iso2": "US",
      "facility_admin1": "MI",
      "facility_lat": "42.91667",
      "facility_lon": "-85.2",
      "distance_km": "124.12091850695388",
      "name_score": "0.4",
      "admin_score": "1.0",
      "dist_score": "0.7931318024884102",
      "total_score": "0.577939540746523"
    },
    {
      "doc_id": "09fed84a37fc85d45202a3760ea2a64cdf42beb7",
      "place_name": "Oceana County",
      "geonameid": "5004294",
      "hit_lat": "43.68178",
      "hit_lon": "-86.31683",
      "hit_country_iso2": "US",
      "hit_admin1_name": "Michigan",
      "hit_admin1_code": "MI",
      "feature_class": "A",
      "feature_code": "ADM2",
      "candidate_reason": "by_country",
      "hit_type": "sea",
      "rank": "6",
      "ims_facility_id": "GHN",
      "unlocode": "USGHN",
      "facility_name": "Grand Haven",
      "facility_city": "Michigan",
      "facility_country_iso2": "US",
      "facility_admin1": "MI",
      "facility_lat": "43.0630734",
      "facility_lon": "-86.2283864",
      "distance_km": "69.16743889456875",
      "name_score": "0.35294117647058826",
      "admin_score": "1.0",
      "dist_score": "0.8847209351757188",
      "total_score": "0.5771809864350685"
    },
    {
      "doc_id": "09fed84a37fc85d45202a3760ea2a64cdf42beb7",
      "place_name": "Oceana County",
      "geonameid": "5004294",
      "hit_lat": "43.68178",
      "hit_lon": "-86.31683",
      "hit_country_iso2": "US",
      "hit_admin1_name": "Michigan",
      "hit_admin1_code": "MI",
      "feature_class": "A",
      "feature_code": "ADM2",
      "candidate_reason": "by_country",
      "hit_type": "sea",
      "rank": "9",
      "ims_facility_id": "GRR",
      "unlocode": "USGRR",
      "facility_name": "Grand Rapids",
      "facility_city": "Michigan",
      "facility_country_iso2": "US",
      "facility_admin1": "MI",
      "facility_lat": "42.9632425",
      "facility_lon": "-85.6678639",
      "distance_km": "95.60088587934457",
      "name_score": "0.37037037037037035",
      "admin_score": "1.0",
      "dist_score": "0.8406651902010924",
      "total_score": "0.5744217792825499"
    },
    {
      "doc_id": "09fed84a37fc85d45202a3760ea2a64cdf42beb7",
      "place_name": "Oceana County",
      "geonameid": "5004294",
      "hit_lat": "43.68178",
      "hit_lon": "-86.31683",
      "hit_country_iso2": "US",
      "hit_admin1_name": "Michigan",
      "hit_admin1_code": "MI",
      "feature_class": "A",
      "feature_code": "ADM2",
      "candidate_reason": "by_country",
      "hit_type": "sea",
      "rank": "11",
      "ims_facility_id": "FNF",
      "unlocode": "USFNF",
      "facility_name": "Frankfort",
      "facility_city": "Michigan",
      "facility_country_iso2": "US",
      "facility_admin1": "MI",
      "facility_lat": "44.63333",
      "facility_lon": "-86.23333",
      "distance_km": "106.01698405582823",
      "name_score": "0.36363636363636365",
      "admin_score": "1.0",
      "dist_score": "0.8233050265736196",
      "total_score": "0.565173326153904"
    },
    {
      "doc_id": "09fed84a37fc85d45202a3760ea2a64cdf42beb7",
      "place_name": "Oceana County",
      "geonameid": "5004294",
      "hit_lat": "43.68178",
      "hit_lon": "-86.31683",
      "hit_country_iso2": "US",
      "hit_admin1_name": "Michigan",
      "hit_admin1_code": "MI",
      "feature_class": "A",
      "feature_code": "ADM2",
      "candidate_reason": "by_country",
      "hit_type": "sea",
      "rank": "1",
      "ims_facility_id": "4NJ",
      "unlocode": "US4NJ",
      "facility_name": "New Era",
      "facility_city": "Michigan",
      "facility_country_iso2": "US",
      "facility_admin1": "MI",
      "facility_lat": "43.55",
      "facility_lon": "-86.33333",
      "distance_km": "14.713348419082743",
      "name_score": "0.2857142857142857",
      "admin_score": "1.0",
      "dist_score": "0.9754777526348621",
      "total_score": "0.5640718972190301"
    },